id,title,company_name,contract_type,city,city_geocode,latitude,longitude,postal_code,department,date_creation,year,month,week,is_remote,salary_min,salary_max,salary_median,skills_count
206HXZS,Alternance - Data Analyst Appui Innovation F/H,ENEDIS,CDD,Paris,"Paris, 75, France",48.884682,2.322169,75017,75,2026-04-01 14:21:58.024000+02:00,2026,4,14,True,9720.0,21612.0,15666.0,4
206HXCW,Analyste programeur (euse) (H/F),FILIX,CDI,Ste Savine,"Ste Savine, 10, France",48.293133,4.056527,10300,10,2026-04-01 14:02:04.839000+02:00,2026,4,14,True,24456.0,30000.0,27228.0,0
206HWMM,Développeur C# (H/F),FAIRSON INVENTAIRE,CDI,Challans,"Challans, 85, France",46.844739,-1.87919,85300,85,2026-04-01 13:50:24.002000+02:00,2026,4,14,False,,,,1
1005400,Développeur Bi / SQL (F/H) h/f,,CDI,Balma,"Balma, 31, France",43.628269,1.532864,31130,31,2026-04-01 12:59:07+02:00,2026,4,14,False,,,,5
1003107,Chef de Projet Applicatif Confirmé (H/F),,CDI,Linas,"Linas, 91, France",48.631269,2.266723,91310,91,2026-04-01 12:45:43+02:00,2026,4,14,True,,,,2
1002639,Développeur(se) Angular / Java F/H h/f,,CDI,Grenoble,"Grenoble, 38, France",45.18637,5.711296,38000,38,2026-04-01 12:40:48+02:00,2026,4,14,True,,,,3
1002623,Développeur Java (F/H) h/f,,CDI,Balma,"Balma, 31, France",43.628269,1.532864,31130,31,2026-04-01 12:40:21+02:00,2026,4,14,False,,,,2
1002567,Développeur Mobile Expérimenté- F/H h/f,,CDI,Saint-Herblain,"Saint-Herblain, 44, France",47.244068,-1.605885,44800,44,2026-04-01 12:39:39+02:00,2026,4,14,True,,,,2
1002480,Lead Data driven Manufacturing F/H h/f,,CDI,Paris,"Paris, 75, France",,,,75,2026-04-01 12:39:02+02:00,2026,4,14,False,,,,5
1001297,Ingénieur / Ingénieure qualité en industrie (15870) (H/F),,CDD,Corbeil-Essonnes,"Corbeil-Essonnes, 91, France",48.585345,2.470708,91100,91,2026-04-01 12:03:14+02:00,2026,4,14,False,,,,3
206HMBT,Tech Lead TIBCO (H/F),,CDI,Courbevoie,"Courbevoie, 92, France",48.898112,2.238533,92400,92,2026-04-01 11:17:54.145000+02:00,2026,4,14,False,60000.0,84000.0,72000.0,0
206HLRV,Développeur fullstack (H/F),FRANCE DETECTION SERVICES,CDI,Le Thor,"Le Thor, 84, France",43.928359,4.993271,84250,84,2026-04-01 11:08:46.925000+02:00,2026,4,14,False,26400.0,26400.0,26400.0,4
0993948,Data Analyst - Inventory Management - Value Chain (f/m/d) (H/F),,CDI,Paris,"Paris, 75, France",,,,75,2026-04-01 09:02:37+02:00,2026,4,14,True,,,,12
0993936,Data Analyst - Inventory Management - Value Chain (f/m/d) (H/F),,CDI,Villeneuve-D'Ascq,"Villeneuve-D'Ascq, 59, France",50.619793,3.160295,59491,59,2026-04-01 09:02:37+02:00,2026,4,14,True,,,,12
0991245,Développeur/se PHP Java Script - Edition de logiciels -  Lyon (H/F),,CDI,Limonest,"Limonest, 69, France",45.835717,4.770972,69760,69,2026-04-01 08:45:21+02:00,2026,4,14,False,,,,4
0991158,Ingénieur·e en vision informatique C++ Qt (H/F),,CDI,Senlis,"Senlis, 60, France",49.205086,2.583378,60300,60,2026-04-01 08:44:51+02:00,2026,4,14,False,,,,1
0990184,Développeur Quantitatif  H/F,,CDI,Paris,"Paris, 75, France",,,,75,2026-04-01 08:38:40+02:00,2026,4,14,False,,,,2
0989107,Analyste Cybersécurité SOC/CERT en alternance (F/H) - MASSY (H/F),,CDD,Massy,"Massy, 91, France",48.730893,2.271256,91300,91,2026-04-01 08:32:06+02:00,2026,4,14,False,,,,3
0987261,Lead Data Engineer GCP (F/H) - MASSY (H/F),,CDI,Massy,"Massy, 91, France",48.730893,2.271256,91300,91,2026-04-01 08:00:38+02:00,2026,4,14,True,,,,6
0986500,Concepteur Développeur COBOL / SQL (H/F),,CDI,Neuilly-Sur-Seine,"Neuilly-Sur-Seine, 92, France",48.884789,2.269688,92200,92,2026-04-01 07:47:19+02:00,2026,4,14,True,,,,1
0985943,Développeur Angular web Junior H/F,,CDI,Villeneuve-Loubet,"Villeneuve-Loubet, 06, France",43.631263,7.13317,06270,06,2026-04-01 07:37:33+02:00,2026,4,14,False,,,,2
0985618,Analyste-programmeur / Analyste-programmeuse informatique (H/F),CFF-ESNPROCESS,CDD,Seine-Et-Marne,"Seine-Et-Marne, 77, France",,,,77,2026-04-01 07:31:22+02:00,2026,4,14,False,,,,0
0985074,Data engineer et cheffe/Chef de projet Data (H/F),,CDI,Barberaz,"Barberaz, 73, France",45.56352,5.94492,73000,73,2026-04-01 07:01:00+02:00,2026,4,14,True,,,,8
0975645,Technicien Méthodes - Programmation FAO H/F,,CDI,Distroff,"Distroff, 57, France",49.331843,6.263006,57925,57,2026-04-01 03:02:10+02:00,2026,4,14,False,40000.0,45000.0,42500.0,0
0975621,Méthodes Programmation TOPSOLID (H/F),,CDI,Barbazan-Debat,"Barbazan-Debat, 65, France",43.19627,0.118374,65690,65,2026-04-01 03:02:10+02:00,2026,4,14,False,,,,0
0970685,Stage - Data Analyst F/H Dijon,,CDI,Dijon,"Dijon, 21, France",47.318835,5.00279,21000,21,2026-03-31 23:00:47+02:00,2026,3,14,True,,,,4
0970683,Alternance - Data Analyst F/H Dijon,,CDI,Dijon,"Dijon, 21, France",47.318835,5.00279,21000,21,2026-03-31 23:00:47+02:00,2026,3,14,True,,,,4
206HGSQ,Data Engineer / Data Scientist (H/F),ADHOC CONSULT,CDI,Paris 14,"Paris 14, 75, France",48.832769,2.325738,75014,75,2026-03-31 22:52:57.628000+02:00,2026,3,14,False,,,,6
0967426,Développeur (se) .NET / SharePoint - Aéroline - Ile de France (H/F),,CDI,Courbevoie,"Courbevoie, 92, France",48.901819,2.267542,92400,92,2026-03-31 21:39:49+02:00,2026,3,14,False,,,,2
0967228,CHARGÉ DÉPLOIEMENT ET SUPPORT SAP BUSINESS ONE - H/F,SIGNAUX GIROD,CDI,Bellefontaine,"Bellefontaine, 39, France",46.558422,6.065824,39400,39,2026-03-31 21:33:58+02:00,2026,3,14,False,,,,1
0967005,Senior Data Scientist - Downstream Demand Forecast - Value Chain (f/m/d) (H/F),,CDI,Villeneuve-D'Ascq,"Villeneuve-D'Ascq, 59, France",50.619793,3.160295,59491,59,2026-03-31 21:31:00+02:00,2026,3,14,False,,,,13
0967004,Senior Data Scientist - Downstream Demand Forecast - Value Chain (f/m/d) (H/F),,CDI,Paris,"Paris, 75, France",,,,75,2026-03-31 21:30:58+02:00,2026,3,14,False,,,,13
0963441,Régleur programmeur (H/F),,MIS,Chassieu,"Chassieu, 69, France",45.743474,4.972524,69680,69,2026-03-31 19:52:31+02:00,2026,3,14,False,,,,0
0962708,TECHNICIEN INSTALLATION ET PROGRAMMATION (H/F),,MIS,Amiens,"Amiens, 80, France",49.912789,2.254165,80000,80,2026-03-31 19:43:39+02:00,2026,3,14,False,,,,0
0962515,Développeur web (H/F),,MIS,Épinal,"Épinal, 88, France",48.147148,6.454651,88000,88,2026-03-31 19:41:17+02:00,2026,3,14,False,,,,1
206GZXP,Ingénieur-e données (H/F),RENNES METROPOLE,CDI,Rennes,"Rennes, 35, France",48.126268,-1.658285,35000,35,2026-03-31 18:56:45.789000+02:00,2026,3,14,False,34800.0,39600.0,37200.0,0
206GWHK,Développeur informatique (H/F),LE FOYER REMOIS,CDI,Reims,"Reims, 51, France",49.231145,4.006933,51100,51,2026-03-31 17:48:10.479000+02:00,2026,3,14,True,,,,1
0960023,Supply Chain Manager (H/F),,MIS,Vénissieux,"Vénissieux, 69, France",45.695917,4.874121,69200,69,2026-03-31 17:29:31+02:00,2026,3,14,False,,,,5
206GRTW,DEVELOPPEUR- ALTERNANCE (H/F),CAISSE MSA LOIRE ATLANTIQUE VENDEE,CDD,La Roche-Sur-Yon,"La Roche-Sur-Yon, 85, France",46.656575,-1.423925,85000,85,2026-03-31 16:45:29.588000+02:00,2026,3,14,False,,,,3
0956763,Directeur de Mission (H/F),,CDI,Paris,"Paris, 75, France",48.872479,2.341194,75009,75,2026-03-31 16:43:46+02:00,2026,3,14,True,50000.0,50000.0,50000.0,4
0955893,Data manager (H/F),,CDI,Castelnaudary,"Castelnaudary, 11, France",43.317374,1.953053,11400,11,2026-03-31 16:41:15+02:00,2026,3,14,False,,,,5
0955490,Développeur·euse PL / SQL (T-SQL) (H/F),,CDI,,,,,,No,2026-03-31 16:38:58+02:00,2026,3,14,True,55000.0,70000.0,62500.0,1
0955511,Développeur·euse .NET REACT (H/F),,CDI,Paris 1Er Arrondissement,"Paris 1Er Arrondissement, 75, France",,,75001,75,2026-03-31 16:38:58+02:00,2026,3,14,False,,,,2
0955516,Développeur·se .NET Agile React.JS / C# (H/F),,CDI,Paris,"Paris, 75, France",48.872479,2.341194,75009,75,2026-03-31 16:38:58+02:00,2026,3,14,False,45000.0,60000.0,52500.0,2
0954635,Développeur .net H/F,,CDI,Villeurbanne,"Villeurbanne, 69, France",45.766184,4.877063,69100,69,2026-03-31 16:38:37+02:00,2026,3,14,True,,,,3
0954335,Développeur Web (H/F),,CDD,Clermont-Ferrand,"Clermont-Ferrand, 63, France",45.812995,3.128579,63000,63,2026-03-31 16:38:26+02:00,2026,3,14,False,30000.0,45000.0,37500.0,3
0953255,Développeur / Développeuse web (H/F),,LIB,Rouen,"Rouen, 76, France",49.461641,1.133402,76000,76,2026-03-31 16:38:16+02:00,2026,3,14,True,,,,2
0952675,Analyste développeur (H/F),,MIS,Marignane,"Marignane, 13, France",43.431314,5.190598,13700,13,2026-03-31 16:36:03+02:00,2026,3,14,False,,,,2
0952179,Analyste programmeur iOS (H/F),,MIS,Avenières Veyrins-Thuellin,"Avenières Veyrins-Thuellin, 38, France",45.626455,5.539156,38630,38,2026-03-31 16:34:14+02:00,2026,3,14,False,,,,0
0951768,Ingénieur de maintenance (H/F),,CDI,Rouen,"Rouen, 76, France",49.461641,1.133402,76000,76,2026-03-31 16:32:39+02:00,2026,3,14,False,,,,4
0951676,Analyste financier / financière (H/F),,CDI,Paris,"Paris, 75, France",48.872479,2.341194,75009,75,2026-03-31 16:32:22+02:00,2026,3,14,False,,,,3
0951457,Assistant programmation planning (H/F),,CDI,Gergy,"Gergy, 71, France",46.875568,4.946551,71590,71,2026-03-31 16:31:37+02:00,2026,3,14,False,30000.0,30000.0,30000.0,0
0950783,Data Manager (H/F),,MIS,Colomiers,"Colomiers, 31, France",43.61086,1.334798,31770,31,2026-03-31 16:28:48+02:00,2026,3,14,False,,,,4
0945907,Développeur / Développeuse web (H/F),,CDI,Paris,"Paris, 75, France",48.872479,2.341194,75009,75,2026-03-31 15:29:02+02:00,2026,3,14,False,80000.0,100000.0,90000.0,2
0944797,Technicien Programmeur H/F,,CDI,Roubaix,"Roubaix, 59, France",50.687951,3.158756,59100,59,2026-03-31 15:25:30+02:00,2026,3,14,False,,,,0
206GLXS,Ingénieur Data/SI H/F,MAJUPROTECH,CDI,Limonest,"Limonest, 69, France",45.835717,4.770972,69760,69,2026-03-31 14:43:44.327000+02:00,2026,3,14,False,,,,3
0943207,Analyste développeur C/C++ (H/F),,CDI,Angers,"Angers, 49, France",47.468456,-0.597287,49000,49,2026-03-31 14:39:03+02:00,2026,3,14,False,,,,2
0942825,Analyste développeur C/C++ (H/F),,CDI,Nantes,"Nantes, 44, France",47.256794,-1.575958,44000,44,2026-03-31 14:35:24+02:00,2026,3,14,False,,,,2
206GLCK,Data engineer (H/F),EPSYL,CDI,Begles,"Begles, 33, France",44.808149,-0.543662,33130,33,2026-03-31 14:16:56.056000+02:00,2026,3,14,False,,,,5
206GLBW,TESTING (H/F),SERA,CDI,Nantes,"Nantes, 44, France",47.256794,-1.575958,44000,44,2026-03-31 14:16:05.370000+02:00,2026,3,14,True,,,,4
0941355,Développeur (H/F),,CDI,Lyon,"Lyon, 69, France",45.763559,4.827411,69005,69,2026-03-31 13:34:48+02:00,2026,3,14,False,60000.0,90000.0,75000.0,5
0941334,Ingénieur programmation IHM (H/F),,CDI,Annecy,"Annecy, 74, France",45.9137,6.144866,74000,74,2026-03-31 13:34:04+02:00,2026,3,14,False,,,,0
0941211,Développeur .Net / Angular (H/F),,CDI,Marseille 1Er Arrondissement,"Marseille 1Er Arrondissement, 13, France",43.299265,5.383952,13001,13,2026-03-31 13:22:00+02:00,2026,3,14,False,,,,4
0941097,Lead Développeur (H/F),,CDI,Toulouse,"Toulouse, 31, France",43.620083,1.470166,31000,31,2026-03-31 13:21:58+02:00,2026,3,14,False,,,,1
0940833,Technicienne / Technicien Intégration Sûreté (H/F),,MIS,Cergy,"Cergy, 95, France",49.035743,2.062109,95000,95,2026-03-31 13:21:44+02:00,2026,3,14,False,,,,0
206FZYM,CHARGE(E) DE PROJET - SYSTEME D'INFORMATION GEOGRAPHIQUE (H/F),CAP EMERAUDE,CDD,Pleurtuit,"Pleurtuit, 35, France",48.579202,-2.058954,35730,35,2026-03-31 11:38:19.948000+02:00,2026,3,14,False,26676.36,29076.36,27876.36,4
0936360,Développeur Fullstack C# / Ext Js - F/H h/f,,CDI,Charenton-Le-Pont,"Charenton-Le-Pont, 94, France",48.819716,2.41612,94220,94,2026-03-31 11:36:37+02:00,2026,3,14,True,,,,2
0927340,Analyste scientifique des données (H/F),,CDI,Paris,"Paris, 75, France",48.877495,2.317589,75008,75,2026-03-31 09:00:32+02:00,2026,3,14,False,,,,4
0927324,Développeur / Développeuse data (H/F),,CDD,Nantes,"Nantes, 44, France",47.256794,-1.575958,44000,44,2026-03-31 09:00:32+02:00,2026,3,14,False,29484.0,36684.0,33084.0,1
0921174,Analyste d'exploitation - Supervision & Scripting (H/F),SEA TPI,CDI,Niort,"Niort, 79, France",46.315157,-0.481524,79000,79,2026-03-31 06:31:40+02:00,2026,3,14,True,34000.0,38000.0,36000.0,4
0920743,Data Engineer Snowflake H/F,JEMS,CDI,Marseille 1Er Arrondissement,"Marseille 1Er Arrondissement, 13, France",43.299265,5.383952,13001,13,2026-03-31 06:31:34+02:00,2026,3,14,False,40000.0,50000.0,45000.0,7
0920619,Technicien d’Exploitation Expert Linux  - H/F,Econocom,CDI,Paris,"Paris, 75, France",48.841401,2.300274,75015,75,2026-03-31 06:31:33+02:00,2026,3,14,True,30000.0,34000.0,32000.0,2
0920357,Développeur Fullstack .Net (H/F),SULLY GROUP,CDI,Schiltigheim,"Schiltigheim, 67, France",48.605277,7.748604,67300,67,2026-03-31 06:31:30+02:00,2026,3,14,False,,,,4
0908297,TECHNICIEN PROGRAMMATION MACHINE F/H - Intersud Intérim Toulon,Intersud Intérim Toulon,MIS,Seyne-Sur-Mer,"Seyne-Sur-Mer, 83, France",43.102089,5.881046,83500,83,2026-03-30 23:33:37+02:00,2026,3,14,False,,,,0
206FTWR,Chef de projet exploitation DATA OPS (H/F),CIORANE,CDI,Seine-Saint-Denis,"Seine-Saint-Denis, 93, France",,,,93,2026-03-30 23:31:29.856000+02:00,2026,3,14,False,,,,9
0907468,ALTERNANCE -  DEVELOPPEUR- 85 H/F,,CDI,Roche-Sur-Yon,"Roche-Sur-Yon, 85, France",46.660743,-1.404664,85000,85,2026-03-30 23:00:49+02:00,2026,3,14,False,,,,3
206FNHN,Alternant Consultant Data & Business Intelligence AI (H/F),PROXIMA IT,CDD,Lyon 03,"Lyon 03, 69, France",45.760123,4.849235,69003,69,2026-03-30 19:04:31.710000+02:00,2026,3,14,False,,,,5
206FLWR,Développeur confirmé H/F,CRIT INTERIM,CDI,Port-Jérôme-Sur-Seine,"Port-Jérôme-Sur-Seine, 76, France",49.503941,0.575176,76170,76,2026-03-30 18:40:27.175000+02:00,2026,3,14,False,,,,4
206FJGQ,Technicien 3D (H/F),TREALIS,CDI,Paris,"Paris, 75, France",48.871795,2.357832,75010,75,2026-03-30 17:55:30.642000+02:00,2026,3,14,True,,,,0
206FFSN,Alternance - Programmateur des interventions électriques F/H,ENEDIS,CDD,Nice,"Nice, 06, France",43.7229,7.286864,06000,06,2026-03-30 17:14:46.064000+02:00,2026,3,14,True,9720.0,21612.0,15666.0,0
0900426,INGÉNIEUR D'ÉTUDES DE PROGRAMMATION F/H,,CDD,Évry-Courcouronnes,"Évry-Courcouronnes, 91, France",48.63645,2.446305,91000,91,2026-03-30 16:37:52+02:00,2026,3,14,True,,,,0
206FBRZ,concepteur développeur en alternance (H/F),CAISSE PRIMAIRE ASSURANCE MALADIE,CDD,Bordeaux,"Bordeaux, 33, France",44.820519,-0.571451,33000,33,2026-03-30 16:26:27.460000+02:00,2026,3,14,False,,,,2
206DVGB,Scientifique des données (H/F),SCHAEFFLER FRANCE,CDI,Boussens,"Boussens, 31, France",43.176022,0.972676,31360,31,2026-03-30 14:03:13.427000+02:00,2026,3,14,True,,,,6
0900204,Alternance Developpeur Fullstack - La Ciotat (H/F),,CDD,Ciotat,"Ciotat, 13, France",43.173533,5.605153,13600,13,2026-03-30 13:21:44+02:00,2026,3,14,False,,,,3
0900215,Alternance Data Analyst - La Ciotat (H/F),,CDD,Ciotat,"Ciotat, 13, France",43.173533,5.605153,13600,13,2026-03-30 13:21:44+02:00,2026,3,14,False,,,,5
0900175,Ingénieur Essais & Caractérisation Adhésion (H/F),,CDI,Lille,"Lille, 59, France",50.619413,3.031632,59000,59,2026-03-30 13:21:43+02:00,2026,3,14,False,,,,0
0899537,Prof à domicile de Informatique programmation niveau Adulte Niv. Sup à MALAKOFF (H/F),,CDD,Malakoff,"Malakoff, 92, France",48.820847,2.301542,92240,92,2026-03-30 11:02:56+02:00,2026,3,14,False,,,,0
0898799,"Data Scientist F/H - Système, réseaux, données (H/F)",FED SAS,CDI,Apprieu,"Apprieu, 38, France",45.399068,5.503635,38140,38,2026-03-30 08:40:03+02:00,2026,3,14,True,,,,4
0898426,Scrum Master F/H - Informatique de gestion (H/F),SAVOYE,CDI,Longvic,"Longvic, 21, France",47.28516,5.061148,21600,21,2026-03-30 08:32:04+02:00,2026,3,14,True,,,,6
0895012,Alternance – Data Engineer – Services Financiers – Data factory -Nantes (H/F),,MIS,Nantes,"Nantes, 44, France",47.256794,-1.575958,44000,44,2026-03-30 07:00:23+02:00,2026,3,14,True,,,,9
0894924,Développeur(se) Fullstack F/H h/f,,CDI,Puy-De-Dôme,"Puy-De-Dôme, 63, France",,,,63,2026-03-30 05:23:04+02:00,2026,3,14,True,,,,2
0894899,Développeur(peuse) confirmé(e) IBMI et/ou Cobol Mainframe F/H h/f,,CDI,Rouen,"Rouen, 76, France",49.430099,1.084284,76000,76,2026-03-30 05:22:31+02:00,2026,3,14,True,,,,1
0894887,Développeur(se) Fullstack Java/Javascript F/H h/f,,CDI,Brest,"Brest, 29, France",48.398736,-4.454601,29200,29,2026-03-30 05:22:14+02:00,2026,3,14,True,,,,2
0893529,Développeur/se Full Stack - Aeroline - Toulouse (H/F),,CDI,Toulouse,"Toulouse, 31, France",43.572331,1.40304,31000,31,2026-03-29 07:00:46+02:00,2026,3,13,True,,,,2
0893227,Ingénieur Data H/F,Banque Populaire Rives de Paris,CDI,Paris 1Er Arrondissement,"Paris 1Er Arrondissement, 75, France",,,75001,75,2026-03-29 06:22:13+02:00,2026,3,13,False,,,,4
0893202,Développeur(se) Java F/H h/f,,CDI,Brest,"Brest, 29, France",48.382774,-4.529596,29200,29,2026-03-29 06:21:37+02:00,2026,3,13,False,,,,4
0892561,CHARGÉ DE MÉTHODES ET DE PROGRAMMATION H/F,,MIS,Montrichard Val De Cher,"Montrichard Val De Cher, 41, France",47.343016,1.183752,41400,41,2026-03-28 15:39:32+01:00,2026,3,13,False,,,,0
0891786,Apprenti(e) Ingénieur en Contrôle de Gestion et Data analyst H/F,,CDD,Castelnau-Le-Lez,"Castelnau-Le-Lez, 34, France",43.632735,3.897499,34170,34,2026-03-28 15:39:10+01:00,2026,3,13,True,,,,5
0891407,Développeur backend Java - Monétique  H/F,,CDI,Montpellier,"Montpellier, 34, France",43.615413,3.839357,34000,34,2026-03-28 15:38:55+01:00,2026,3,13,True,40000.0,50000.0,45000.0,1
0891398,TECHNICIEN INSTALLATION ET PROGRAMMATION (H/F),,MIS,Amiens,"Amiens, 80, France",49.911865,2.306863,80000,80,2026-03-28 15:38:55+01:00,2026,3,13,False,24000.0,34800.0,29400.0,0
0888844,Analyste développeur Talend (H/F),,CDI,Montpellier,"Montpellier, 34, France",43.615413,3.839357,34000,34,2026-03-28 12:28:11+01:00,2026,3,13,False,,,,2
0887217,Analyste développeur C/C++ (H/F),,CDI,Nord,"Nord, 59, France",,,,59,2026-03-28 11:55:31+01:00,2026,3,13,True,,,,4
0884627,Chargé de programmation (H/F),,CDI,Paris,"Paris, 75, France",48.872479,2.341194,75009,75,2026-03-28 11:29:38+01:00,2026,3,13,True,,,,0
0883715,Développeur web (H/F),,CDD,Boulogne-Billancourt,"Boulogne-Billancourt, 92, France",48.835948,2.240514,92100,92,2026-03-28 11:07:52+01:00,2026,3,13,False,,,,2
0880699,Développeur / Développeuse web (H/F),,CDI,Villetaneuse,"Villetaneuse, 93, France",48.961163,2.343963,93430,93,2026-03-28 09:53:06+01:00,2026,3,13,True,40000.0,50000.0,45000.0,3
0880687,Développeur / Développeuse web (H/F),,CDI,Gonesse,"Gonesse, 95, France",48.98631,2.449911,95500,95,2026-03-28 09:52:58+01:00,2026,3,13,True,40000.0,50000.0,45000.0,3
0880017,Développeur / Développeuse web (H/F),,CDI,Montlhéry,"Montlhéry, 91, France",48.636733,2.270024,91310,91,2026-03-28 09:43:34+01:00,2026,3,13,True,40000.0,50000.0,45000.0,3
0879823,Développeur / Développeuse web (H/F),,CDI,Chevilly-Larue,"Chevilly-Larue, 94, France",48.772418,2.361822,94550,94,2026-03-28 09:38:53+01:00,2026,3,13,True,40000.0,50000.0,45000.0,3
0879649,"Consultant Senior ou Manager Data Analyst & BI - secteur Financier, H/F",EY,CDI,Paris,"Paris, 75, France",48.862155,2.30465,,75,2026-03-28 09:31:19+01:00,2026,3,13,False,,,,4
0876122,Technicien support N2 H/F,LEA Recrutement,CDI,Montpellier,"Montpellier, 34, France",43.613441,3.868517,34000,34,2026-03-28 08:44:13+01:00,2026,3,13,False,25000.0,35000.0,30000.0,2
0875520,Apprenti-e Data Steward Matériaux et Procédés F/H (H/F),Safran,CDD,Gonfreville-L'Orcher,"Gonfreville-L'Orcher, 76, France",49.231033,-1.402866,76700,76,2026-03-28 08:41:18+01:00,2026,3,13,False,,,,3
0875501,Ingénieur commercial / Ingénieure commerciale (H/F),SOLUTEC,CDI,Boulogne-Billancourt,"Boulogne-Billancourt, 92, France",48.859295,2.345581,92100,92,2026-03-28 08:41:13+01:00,2026,3,13,False,30000.0,50000.0,40000.0,0
0875473,Développeur Talend F/H - Informatique de gestion (H/F),Hays France,CDI,Nice,"Nice, 06, France",43.693888,7.251207,06000,06,2026-03-28 08:41:04+01:00,2026,3,13,True,,,,6
0875230,Développeur Angular web Junior F/H - Informatique de gestion (H/F),Hays France,CDI,Villeneuve-Loubet,"Villeneuve-Loubet, 06, France",43.638374,7.137721,06270,06,2026-03-28 08:39:55+01:00,2026,3,13,False,,,,3
0874745,Développeur(se) Alteryx F/H h/f,,CDI,Montpellier,"Montpellier, 34, France",43.615413,3.839357,34000,34,2026-03-28 08:36:35+01:00,2026,3,13,True,,,,1
0874664,Développeur(se) Alteryx F/H h/f,,CDI,Toulouse,"Toulouse, 31, France",43.58068,1.460573,31000,31,2026-03-28 08:36:11+01:00,2026,3,13,True,,,,1
0872693,Architecte / Ingénieur dans le développement et la programmation de projets (m/f/d) (H/F),,CDI,,,,,,No,2026-03-28 08:00:43+01:00,2026,3,13,False,,,,0
0872069,Alternance - Programmateur des interventions électriques F/H (H/F),,CDD,Alençon,"Alençon, 61, France",48.43182,0.091541,61000,61,2026-03-28 07:38:46+01:00,2026,3,13,True,9840.0,21840.0,15840.0,0
0856523,Ingénieur Data/IA (F/H),CERFRANCE Champagne Nord Est Ile de France,CDI,Chambry,"Chambry, 02, France",49.591619,3.656085,02000,02,2026-03-28 04:31:29+01:00,2026,3,13,False,38000.0,45000.0,41500.0,4
0856409,Technicien méthodes programmation usinage H/F,Sensace Carrière,CDI,Besançon,"Besançon, 25, France",47.237756,6.023879,25000,25,2026-03-28 04:31:29+01:00,2026,3,13,False,40000.0,45000.0,42500.0,0
0856284,Administrateur DB2 Mainframe (H/F),SEA TPI,CDI,Castelnau-Le-Lez,"Castelnau-Le-Lez, 34, France",43.632735,3.897499,34170,34,2026-03-28 04:31:28+01:00,2026,3,13,True,53000.0,58000.0,55500.0,2
0852611,Technicien informatique industrielle H/F,,CDI,Airvault,"Airvault, 79, France",46.824439,-0.138855,79600,79,2026-03-28 01:02:11+01:00,2026,3,13,False,,,,3
0849862,Harmonie Mutuelle - Actuaire (H/F),,CDI,Châtillon,"Châtillon, 92, France",48.799654,2.289749,92320,92,2026-03-27 22:20:56+01:00,2026,3,13,True,,,,3
0843916,Ingenieure - Ingenieur Logiciel Plm Nucléaire H/F,Capgemini,CDI,Bordeaux,"Bordeaux, 33, France",44.820519,-0.571451,33000,33,2026-03-27 20:42:34+01:00,2026,3,13,False,36000.0,38000.0,37000.0,5
206CYML,Chargé de missions DATA et SIRH (H/F),,CDD,Paris,"Paris, 75, France",48.846127,2.344508,75005,75,2026-03-27 18:21:25.266000+01:00,2026,3,13,False,,,,4
206CXZT,Scientifique des données (H/F),SCHAEFFLER FRANCE,CDI,Toulouse,"Toulouse, 31, France",43.597868,1.430199,31000,31,2026-03-27 18:06:17.291000+01:00,2026,3,13,True,,,,7
206CXNX,Développeur-se Full Stack .Net C# (H/F),HELIOS,CDI,Lattes,"Lattes, 34, France",43.586989,3.924527,34970,34,2026-03-27 17:55:02.857000+01:00,2026,3,13,True,32400.0,48000.0,40200.0,1
206CVRQ,Data engineer - Lyon (69) (H/F),EPSYL,CDI,Lyon 01,"Lyon 01, 69, France",45.769506,4.830081,69001,69,2026-03-27 17:14:53.880000+01:00,2026,3,13,True,,,,7
206CVQQ,Développeur Java - Lyon (69) (H/F),EPSYL,CDI,Lyon 01,"Lyon 01, 69, France",45.769506,4.830081,69001,69,2026-03-27 17:14:00.064000+01:00,2026,3,13,True,,,,1
206CVHP,Développeur(se) Java - Marseille (13) (H/F),EPSYL,CDI,Marseille 01,"Marseille 01, 13, France",43.299265,5.383952,13001,13,2026-03-27 17:07:59.606000+01:00,2026,3,13,True,,,,1
0834419,DEVELOPPEUR INFORMATIQUE (H/F) SAINTE CECILE (85),,MIS,Sainte-Cécile,"Sainte-Cécile, 85, France",46.742632,-1.114464,85110,85,2026-03-27 15:40:19+01:00,2026,3,13,False,,,,1
206CKFM,Développeur fullstack Dotnet (H/F),HOLENEK INGENIERIE,CDI,Saint-Sébastien-Sur-Loire,"Saint-Sébastien-Sur-Loire, 44, France",47.205926,-1.501807,44230,44,2026-03-27 14:05:32.521000+01:00,2026,3,13,False,,,,3
0831864,Développeur informatique ETL - fonctionnel - BI F/H - Informatique de gestion (H/F),Hays France,CDI,Mulhouse,"Mulhouse, 68, France",47.750653,7.335915,68100,68,2026-03-27 12:38:14+01:00,2026,3,13,False,,,,4
0831738,Développeur Plateforme actuariel .net C# Azure F/H - Etudes socio-économiques (H/F),BPCE SA,CDI,Rennes,"Rennes, 35, France",48.126268,-1.658285,35000,35,2026-03-27 12:34:24+01:00,2026,3,13,False,,,,4
0831570,Data engineer (H/F),,CDI,Lille,"Lille, 59, France",50.633897,3.040628,59000,59,2026-03-27 12:21:50+01:00,2026,3,13,False,,,,7
0831584,Alternance AI Software Engineer (H/F),,CDD,Villeurbanne,"Villeurbanne, 69, France",45.766184,4.877063,69100,69,2026-03-27 12:21:50+01:00,2026,3,13,False,,,,3
0831298,Data Engineer (Paris) (H/F),,CDI,Paris,"Paris, 75, France",48.871795,2.357832,75010,75,2026-03-27 12:21:47+01:00,2026,3,13,True,,,,7
0831383,Data Engineer (H/F),,CDI,Lille,"Lille, 59, France",50.633897,3.040628,59000,59,2026-03-27 12:21:45+01:00,2026,3,13,False,,,,8
0831200,Data Engineer Confirmé (H/F),,CDI,Nantes,"Nantes, 44, France",47.253826,-1.530426,44000,44,2026-03-27 12:21:45+01:00,2026,3,13,False,,,,5
0831060,Ingénieur commercial - - CDI (H/F),,CDI,Paris,"Paris, 75, France",48.863888,2.361752,75003,75,2026-03-27 12:21:44+01:00,2026,3,13,False,,,,1
0827450,Technicien méthodes programmation machine (H/F),Soprema,CDI,Poiré-Sur-Vie,"Poiré-Sur-Vie, 85, France",47.417366,-0.82135,85170,85,2026-03-27 11:22:24+01:00,2026,3,13,False,,,,0
0826746,"Ingénieur Système F/H - Système, réseaux, données (H/F)",AKKODIS FRANCE SAS,CDI,Toulon,"Toulon, 83, France",43.122728,5.981311,83000,83,2026-03-27 11:16:28+01:00,2026,3,13,False,,,,1
0826696,DÉVELOPPEUR INFORMATIQUE (F/H) (H/F),,MIS,Metz,"Metz, 57, France",49.136255,6.168298,57000,57,2026-03-27 11:15:59+01:00,2026,3,13,False,,,,1
0826110,Alternance Data Scientist F/H (H/F),929840-PARIS DIRECTION DES SI COLISSIMO,CDD,Issy-Les-Moulineaux,"Issy-Les-Moulineaux, 92, France",48.823475,2.264498,92130,92,2026-03-27 11:11:37+01:00,2026,3,13,False,,,,7
0826089,Alternance - Analyste de données H/F,DAHER,CDD,Cornebarrieu,"Cornebarrieu, 31, France",43.648628,1.32243,31700,31,2026-03-27 11:11:28+01:00,2026,3,13,True,,,,4
0826036,"Développeur Fullstack, JS/PHP (H/F)",Michael Page,CDI,Yvelines,"Yvelines, 78, France",48.761997,1.837897,,78,2026-03-27 11:11:00+01:00,2026,3,13,True,45000.0,50000.0,47500.0,1
0825517,Stagiaire Data Analyse et Stratégie - Pôle Opérations  (H/F),,CDD,Massy,"Massy, 91, France",48.727791,2.275131,91300,91,2026-03-27 11:06:12+01:00,2026,3,13,False,,,,5
0825420,Application Owner DSI - Expertise Métier/Technique - MOE Front Summit (F/H) h/f,,CDI,Paris,"Paris, 75, France",,,,75,2026-03-27 11:05:19+01:00,2026,3,13,False,,,,4
0815799,Études et développement informatique (H/F),,CDI,Roche-Sur-Yon,"Roche-Sur-Yon, 85, France",46.665914,-1.451444,85000,85,2026-03-27 06:15:33+01:00,2026,3,13,True,,,,2
0810911,Développeur / Programmeur HRA H/F,DRH SIRH,CDI,Aix-En-Provence,"Aix-En-Provence, 13, France",43.534848,5.461078,13080,13,2026-03-27 04:31:32+01:00,2026,3,13,True,,,,1
0810769,Producteur de bases de données géographiques pour simulateurs de vol (H/F),SOGITEC,CDI,Bruz,"Bruz, 35, France",48.024465,-1.746132,35170,35,2026-03-27 04:31:30+01:00,2026,3,13,False,45000.0,60000.0,52500.0,2
0807523,DÉVELOPPEUR ASP .NET (F/H) (H/F),,CDI,Montpellier,"Montpellier, 34, France",43.615413,3.839357,34000,34,2026-03-26 22:45:24+01:00,2026,3,13,True,,,,1
0805810,INGÉNIEUR - MACHINES SPÉCIALES / DEV C++ CDI CLIENT FINAL (F/H) (H/F),,CDI,Rousset,"Rousset, 13, France",43.480571,5.622049,13790,13,2026-03-26 21:55:54+01:00,2026,3,13,False,,,,2
0804517,Technicien / Technicienne programmation (H/F),,MIS,Moncoutant-Sur-Sèvre,"Moncoutant-Sur-Sèvre, 79, France",46.721256,-0.588829,79240,79,2026-03-26 21:07:04+01:00,2026,3,13,False,,,,0
206BQRH,: AI Software Engineer - Backend & Agent Systems (H/F),,CDI,Paris 09,"Paris 09, 75, France",48.872479,2.341194,75009,75,2026-03-26 19:49:19.494000+01:00,2026,3,13,False,,,,6
0800923,Développeur fullstack SI santé (H/F),,CDI,Paris,"Paris, 75, France",,,,75,2026-03-26 19:45:22+01:00,2026,3,13,False,,,,2
0800870,Chef de Projet Développement Applicatif H/F,,CDI,Paris,"Paris, 75, France",,,,75,2026-03-26 19:44:18+01:00,2026,3,13,False,,,,2
206BQDH,Développeur backend Sénior (H/F),OCTIME,CDI,Biron,"Biron, 64, France",43.464909,-0.742062,64300,64,2026-03-26 18:56:18.744000+01:00,2026,3,13,False,,,,3
206BKRN,Chargé de programmation et de développement culturel (H/F),MAIRIE,CDD,Toulouse,"Toulouse, 31, France",43.61625,1.453602,31000,31,2026-03-26 16:55:49.651000+01:00,2026,3,13,False,22200.0,22320.0,22260.0,0
206BJRR,Développeur Technicien Maintenance Junior H/F (H/F),ATOUT MAJEUR CONCEPT,CDI,Quint Fonsegrives,"Quint Fonsegrives, 31, France",43.585342,1.53031,31130,31,2026-03-26 16:37:31.708000+01:00,2026,3,13,False,27240.0,28440.0,27840.0,1
206BJQK,Développeur (H/F),ATOUT MAJEUR CONCEPT,CDI,Quint Fonsegrives,"Quint Fonsegrives, 31, France",43.585342,1.53031,31130,31,2026-03-26 16:35:42.901000+01:00,2026,3,13,False,33480.0,44400.0,38940.0,1
206BGRJ,Chargé de programmation technique et d'études immobilières (H/F),UNIVERSITE GRENOBLE ALPES,CDD,St Martin D Heres,"St Martin D Heres, 38, France",45.183764,5.755098,38400,38,2026-03-26 15:51:19.190000+01:00,2026,3,13,False,26400.0,26400.0,26400.0,0
0796134,Développeur / Développeuse web (H/F),,CDI,Jouy-En-Josas,"Jouy-En-Josas, 78, France",48.764726,2.168626,78350,78,2026-03-26 15:47:32+01:00,2026,3,13,True,40000.0,50000.0,45000.0,3
0796128,Développeur / Développeuse web (H/F),,CDI,Raincy,"Raincy, 93, France",48.898514,2.516042,93340,93,2026-03-26 15:47:25+01:00,2026,3,13,True,40000.0,50000.0,45000.0,3
0794101,Data Engineer  F/H,,CDI,Aix-En-Provence,"Aix-En-Provence, 13, France",43.48513,5.418478,13080,13,2026-03-26 15:38:03+01:00,2026,3,13,False,45000.0,55000.0,50000.0,15
206BDSG,UN(E) RESPONSABLE DE SALLE DE SPECTACLE ET DE PROGRAMMATION (H/F),MAIRIE DE CHECY,CDD,Chécy,"Chécy, 45, France",47.891453,2.02524,45430,45,2026-03-26 14:57:39.887000+01:00,2026,3,13,False,,,,0
0792089,Data manager (H/F),,CDI,Paris,"Paris, 75, France",48.872479,2.341194,75009,75,2026-03-26 14:42:18+01:00,2026,3,13,True,60000.0,70000.0,65000.0,3
0790270,Développeur web (H/F),,CDD,Lyon,"Lyon, 69, France",45.763559,4.827411,69005,69,2026-03-26 13:44:56+01:00,2026,3,13,False,,,,2
0789747,Développeur (H/F),,CDD,Annecy,"Annecy, 74, France",45.967162,6.089122,74000,74,2026-03-26 13:41:41+01:00,2026,3,13,False,,,,9
0788555,Data analyst (H/F),,CDD,Nantes,"Nantes, 44, France",47.194026,-1.529364,44000,44,2026-03-26 13:34:53+01:00,2026,3,13,True,,,,4
0788432,Développeur intelligence artificielle (H/F),,CDD,Paris,"Paris, 75, France",48.872479,2.341194,75009,75,2026-03-26 13:34:25+01:00,2026,3,13,False,,,,10
0788013,Ingénieur développeur Big Data (H/F),,CDI,Saint-Denis,"Saint-Denis, 93, France",48.908581,2.358962,93380,93,2026-03-26 13:32:52+01:00,2026,3,13,True,60000.0,90000.0,75000.0,9
205ZZYD,Concepteur Développeur Mobile confirmé (H/F),,CDI,Courbevoie,"Courbevoie, 92, France",48.901819,2.267542,92400,92,2026-03-26 13:17:10.962000+01:00,2026,3,13,False,48000.0,57600.0,52800.0,3
0787008,Technicien Programmation Usinage Fao H/F,Crit,CDI,Séguinière,"Séguinière, 49, France",47.063013,-0.939167,49280,49,2026-03-26 12:55:44+01:00,2026,3,13,False,30000.0,30000.0,30000.0,0
205ZYDN,Ingénieur Data F/H (H/F),NESTLE EXCELLENCE SUPPORTS FRANCE OU NES,CDI,Issy Les Moulineaux,"Issy Les Moulineaux, 92, France",48.82453,2.273793,92130,92,2026-03-26 12:45:34.450000+01:00,2026,3,13,True,,,,8
0784840,Technicien / Technicienne de hot line en informatique (H/F),,CDI,Nogent-Sur-Seine,"Nogent-Sur-Seine, 10, France",48.492518,3.498124,10400,10,2026-03-26 12:38:01+01:00,2026,3,13,True,,,,2
0784180,Ingénieur Tests & Intégration - Contrôle-Commande Postes Électriques (PC (H/F),,CDI,Nanterre,"Nanterre, 92, France",48.887956,2.225108,92000,92,2026-03-26 12:21:51+01:00,2026,3,13,False,,,,0
0784061,Ingénieur cybersécurité - Analyste CSIRT (H/F),,CDI,Nanterre,"Nanterre, 92, France",48.887956,2.225108,92000,92,2026-03-26 12:21:48+01:00,2026,3,13,False,,,,2
0784013,Alternance Data Analyst - Versailles (H/F),,CDD,Versailles,"Versailles, 78, France",48.801228,2.130076,78000,78,2026-03-26 12:21:47+01:00,2026,3,13,False,,,,3
0781550,Scrum Master F/H - Informatique de gestion (H/F),SAVOYE,CDI,Villeneuve-D'Ascq,"Villeneuve-D'Ascq, 59, France",50.626388,3.150559,59491,59,2026-03-26 11:46:59+01:00,2026,3,13,True,,,,6
205ZTQQ,Développeur et Chef de Projets Logiciels (H/F),AGILE MOUNTAIN SOFTWARE,CDI,St Pierre En Faucigny,"St Pierre En Faucigny, 74, France",46.059971,6.367974,74800,74,2026-03-26 11:38:54.583000+01:00,2026,3,13,False,36000.0,60000.0,48000.0,1
205ZSYQ,Chargé-e de projet programmation & médiation (H/F),ASSOCIATION LES MOYENS DU BORD,CDI,Morlaix,"Morlaix, 29, France",48.605648,-3.8327,29600,29,2026-03-26 11:24:37.369000+01:00,2026,3,13,False,,,,0
0781344,Pilote Procédés Usinage & Programmation Commandes Numériques (H/F),Safran,CDI,Châtellerault,"Châtellerault, 86, France",46.227638,2.213749,86100,86,2026-03-26 11:18:07+01:00,2026,3,13,False,,,,0
0779950,Consultant(e) technico-fonctionnel(le) PeopleSoft expérimenté(e) - F/H - Services Financiers h/f,,CDI,Paris,"Paris, 75, France",,,,75,2026-03-26 11:03:46+01:00,2026,3,13,True,,,,3
205ZQPD,INGÉNIEUR TEST & PROGRAMMATION CARTES ÉLECTRONIQUES (H/F),CARE TECHNOLOGY CONSULTING,CDI,Cholet,"Cholet, 49, France",47.059252,-0.87908,49300,49,2026-03-26 10:33:45.572000+01:00,2026,3,13,False,,,,0
205ZNLR,Chargé de méthodes et de programmation (H/F),PARTNAIRE,CDI,Montrichard Val De Cher,"Montrichard Val De Cher, 41, France",47.343016,1.183752,41400,41,2026-03-26 09:09:26.240000+01:00,2026,3,13,False,,,,0
0769592,DEEP - Data Scientist (H/F),,CDI,,,,,,No,2026-03-26 08:00:42+01:00,2026,3,13,False,,,,9
205ZMVQ,"Agent d'Accueil, Programmateur(trice) et Traducteur(trice) en ETP (H/F)",REDIAB YLANG 976,CDI,Mamoudzou,"Mamoudzou, 976, France",-12.791124,45.220445,97600,976,2026-03-26 06:48:35.983000+01:00,2026,3,13,False,18000.0,21120.0,19560.0,0
0764737,Développeur Dynamics 365 Finance & Operations Sous Langage X++ H/F,Michael Page,CDI,Meyreuil,"Meyreuil, 13, France",43.486837,5.495085,13590,13,2026-03-26 06:44:28+01:00,2026,3,13,True,40000.0,45000.0,42500.0,2
0764668,Ingénieur pilote d'affaires (H/F),,CDI,Dampierre-En-Burly,"Dampierre-En-Burly, 45, France",47.761641,2.519647,45570,45,2026-03-26 06:44:15+01:00,2026,3,13,False,44000.0,44000.0,44000.0,4
0754882,Développeur fullstack .NET / Angular - (H/F),,CDD,Boulogne-Billancourt,"Boulogne-Billancourt, 92, France",48.835948,2.240514,92100,92,2026-03-26 05:00:31+01:00,2026,3,13,False,,,,6
0752598,Data Engineer H/F,JEMS,CDI,,,,,,No,2026-03-26 04:31:33+01:00,2026,3,13,False,45000.0,55000.0,50000.0,6
205ZHRR,Poste analyste développeur (H/F),CAISSE REGIONALE DE CREDIT AGRICOLE MUTU,CDI,Ploufragan,"Ploufragan, 22, France",48.489031,-2.794501,22440,22,2026-03-25 18:17:08.781000+01:00,2026,3,13,False,,,,3
205ZFLT,Ingénieur IA (H/F),LACOUR CONCEPT,CDI,St Doulchard,"St Doulchard, 18, France",47.09979,2.372596,18230,18,2026-03-25 17:33:46.195000+01:00,2026,3,13,False,,,,8
205ZCQJ,Developpeur Full-Stack (H/F),MATEN,CDI,Marseille 01,"Marseille 01, 13, France",43.299265,5.383952,13001,13,2026-03-25 16:58:44.563000+01:00,2026,3,13,False,,,,5
205ZCJP,Developpeur full stack (H/F),MATEN,CDI,Paris (Dept.),"Paris (Dept.), 75, France",,,,75,2026-03-25 16:52:30.668000+01:00,2026,3,13,False,,,,5
205YYQN,Concepteur-Développeur C++ / .NET (H/F) - ST DENIS (93),SEGMENT ELITE,CDI,Saint-Denis,"Saint-Denis, 93, France",,,,93,2026-03-25 16:11:24.529000+01:00,2026,3,13,False,,,,2
0730949,Développeur WinDev/WebDev (H/F),,CDI,Rouen,"Rouen, 76, France",49.44463,1.078462,76000,76,2026-03-25 15:39:17+01:00,2026,3,13,False,45000.0,70000.0,57500.0,2
0730251,Développeur C# H/F,,CDI,Lille,"Lille, 59, France",50.64105,3.087227,59000,59,2026-03-25 15:38:55+01:00,2026,3,13,True,40000.0,45000.0,42500.0,4
205YWFP,Développeur BI (H/F),DIGITRIPS,CDI,Rillieux-La-Pape,"Rillieux-La-Pape, 69, France",45.818759,4.897807,69140,69,2026-03-25 15:31:28.243000+01:00,2026,3,13,True,,,,6
0724938,"Expert systèmes et réseaux F/H - Système, réseaux, données (H/F)",Hays France,CDI,Bordeaux,"Bordeaux, 33, France",44.8419,-0.553188,33000,33,2026-03-25 12:45:35+01:00,2026,3,13,False,,,,4
0725849,Ingénieur COBOL / Mainframe - Migration de Données (H/F),,CDI,Lyon,"Lyon, 69, France",45.753267,4.826881,69002,69,2026-03-25 12:45:03+01:00,2026,3,13,False,,,,0
0725855,Ingénieur COBOL / Mainframe - Migration de Données (H/F),,CDI,Marseille 1Er Arrondissement,"Marseille 1Er Arrondissement, 13, France",43.299265,5.383952,13001,13,2026-03-25 12:45:03+01:00,2026,3,13,False,,,,0
0725689,Calibration Workflow Engineer (H/F),,CDI,Paris,"Paris, 75, France",48.841401,2.300274,75015,75,2026-03-25 12:44:59+01:00,2026,3,13,False,,,,2
0725641,Développeur PHP orienté Base de Données (SQL) - (H/F),,CDI,Saint-Sorlin-De-Vienne,"Saint-Sorlin-De-Vienne, 38, France",45.467238,4.942796,38200,38,2026-03-25 12:44:57+01:00,2026,3,13,True,,,,1
0725635,Développeur Fullstack orienté BDD (SQL) - (H/F),,CDI,Lyon,"Lyon, 69, France",45.746385,4.841631,69007,69,2026-03-25 12:44:57+01:00,2026,3,13,True,,,,1
0725613,"Data Scientists, IA Engineer, Pilote IA (H/F)",,LIB,Saint-Denis,"Saint-Denis, 93, France",48.908581,2.358962,93380,93,2026-03-25 12:44:56+01:00,2026,3,13,True,,,,13
0725563,Développeur Java (H/F),,CDI,Pessac,"Pessac, 33, France",44.814835,-0.619479,33600,33,2026-03-25 12:44:56+01:00,2026,3,13,False,,,,2
0724861,"Data Scientists, IA Engineer, Pilote IA (H/F)",,LIB,Saint-Denis,"Saint-Denis, 93, France",48.908581,2.358962,93380,93,2026-03-25 12:44:32+01:00,2026,3,13,True,,,,13
0724847,INGENIEUR(E) SECOPS (H/F),,LIB,Gometz-La-Ville,"Gometz-La-Ville, 91, France",48.671728,2.125201,91400,91,2026-03-25 12:44:32+01:00,2026,3,13,False,,,,1
0724537,Développeur Full Stack .NET / Angular (H/F),,CDI,Marseille,"Marseille, 13, France",43.296373,5.369877,13002,13,2026-03-25 12:44:31+01:00,2026,3,13,True,,,,3
0724699,Développeur full stack  (JAVASCRIPT/TYPESCRIPT/REACT/NODE.JS/SQL) (H/F),,CDI,Lyon,"Lyon, 69, France",45.746385,4.841631,69007,69,2026-03-25 12:44:31+01:00,2026,3,13,False,,,,2
0724696,Ingénieur Tests d'Intégration (H/F),,CDI,Lavault-Sainte-Anne,"Lavault-Sainte-Anne, 03, France",46.309468,2.599131,03100,03,2026-03-25 12:44:31+01:00,2026,3,13,False,,,,3
0724453,Développeur Full Stack .NET / Angular (H/F),,CDI,Lyon,"Lyon, 69, France",45.760123,4.849235,69003,69,2026-03-25 12:44:30+01:00,2026,3,13,True,,,,3
205YMWF,Developpeur C# (H/F),E-KENT,CDI,Vincennes,"Vincennes, 94, France",48.847697,2.439737,94300,94,2026-03-25 12:21:12.397000+01:00,2026,3,13,True,,,,1
0723163,Consultant(e) Dataiku F/H h/f,,CDI,Paris,"Paris, 75, France",,,,75,2026-03-25 11:50:55+01:00,2026,3,13,True,,,,7
0723152,Data Engineer GCP (H/F) h/f,,CDI,,,,,,No,2026-03-25 11:50:52+01:00,2026,3,13,False,,,,9
0723127,Concepteur Développeur COBOL / SQL (H/F),Groupe Henner,CDI,Neuilly-Sur-Seine,"Neuilly-Sur-Seine, 92, France",48.885372,2.266426,92200,92,2026-03-25 11:50:40+01:00,2026,3,13,True,,,,2
0723052,Ingénieur.e en Sciences des données H/F,IFPEN,CDI,Rueil-Malmaison,"Rueil-Malmaison, 92, France",48.86919,2.177341,92500,92,2026-03-25 11:49:57+01:00,2026,3,13,False,,,,2
0723048,Tech Lead Full Stack JavaScript (Node.js / React) - F/H - CDI (H/F),La Francaise des Jeux,CDI,Bordeaux,"Bordeaux, 33, France",44.857246,-0.573697,33000,33,2026-03-25 11:49:54+01:00,2026,3,13,True,,,,1
0723029,"Alternance - Data Analyst F/H - Système, réseaux, données (H/F)",MATMUT,CDD,Rouen,"Rouen, 76, France",49.461641,1.133402,76000,76,2026-03-25 11:49:43+01:00,2026,3,13,True,,,,4
0722937,Ingénieur FullStack Data GenAI (H/F) h/f,,CDI,,,,,,No,2026-03-25 11:48:55+01:00,2026,3,13,False,,,,6
0722722,"Consultant(e) DataOps F/H - Transport, secteur public h/f",,CDI,Paris,"Paris, 75, France",,,,75,2026-03-25 11:47:08+01:00,2026,3,13,True,,,,5
0722548,Data Engineer Snowflake F/H h/f,,CDI,Paris,"Paris, 75, France",,,,75,2026-03-25 11:45:45+01:00,2026,3,13,True,,,,10
0722347,DEVELOPPEUR ETL TALEND F/H - Informatique de gestion (H/F),INFOBAM,CDI,Lamentin,"Lamentin, 972, France",14.615403,-61.003359,97232,972,2026-03-25 11:44:06+01:00,2026,3,13,False,,,,3
0722287,Développeur Plateforme actuariel .net C# Azure F/H - Saint-Grégoire h/f,,CDI,Saint-Grégoire,"Saint-Grégoire, 35, France",48.153882,-1.682404,35760,35,2026-03-25 11:43:39+01:00,2026,3,13,False,,,,4
0721747,Business Analyst ALM F/H h/f,,CDI,Paris,"Paris, 75, France",,,,75,2026-03-25 11:35:58+01:00,2026,3,13,True,,,,2
0721736,Data Engineer DBT F/H h/f,,CDI,Lille,"Lille, 59, France",50.64105,3.087227,59000,59,2026-03-25 11:35:53+01:00,2026,3,13,True,,,,4
0721727,Consultant(e) Dataiku F/H h/f,,CDI,Tours,"Tours, 37, France",47.42215,0.683116,37000,37,2026-03-25 11:35:40+01:00,2026,3,13,True,,,,7
0721726,Consultant(e) Dataiku F/H h/f,,CDI,Montpellier,"Montpellier, 34, France",43.626378,3.882533,34000,34,2026-03-25 11:35:40+01:00,2026,3,13,True,,,,7
0721724,Consultant(e) Dataiku F/H h/f,,CDI,Toulouse,"Toulouse, 31, France",43.640169,1.45153,31000,31,2026-03-25 11:35:38+01:00,2026,3,13,True,,,,7
205YKJV,Analyste-programmeur / Analyste-programmeuse PHP (H/F),IMAGINE DEVELOPPEMENT,CDI,Vienne,"Vienne, 38, France",45.514521,4.916274,38200,38,2026-03-25 11:35:34.708000+01:00,2026,3,13,False,27600.0,36000.0,31800.0,2
0721713,Data Engineer DBT F/H h/f,,CDI,Tours,"Tours, 37, France",47.42215,0.683116,37000,37,2026-03-25 11:35:29+01:00,2026,3,13,True,,,,4
0721714,Développeur Java H/F,CGI,CDI,Belfort,"Belfort, 90, France",47.637779,6.862823,90000,90,2026-03-25 11:35:29+01:00,2026,3,13,True,,,,3
0721711,Data Engineer Snowflake F/H h/f,,CDI,Tours,"Tours, 37, France",47.42215,0.683116,37000,37,2026-03-25 11:35:28+01:00,2026,3,13,True,,,,10
0721706,Développeur(se) Fullstack JAVA/ReactJS - Services Financiers F/H h/f,,CDI,Paris,"Paris, 75, France",,,,75,2026-03-25 11:35:18+01:00,2026,3,13,True,,,,5
0721704,Data Engineer DBT F/H h/f,,CDI,Montpellier,"Montpellier, 34, France",43.626378,3.882533,34000,34,2026-03-25 11:35:17+01:00,2026,3,13,True,,,,4
0721699,Data Engineer DBT F/H h/f,,CDI,Paris,"Paris, 75, France",,,,75,2026-03-25 11:35:09+01:00,2026,3,13,True,,,,4
0721700,Data Engineer DBT F/H h/f,,CDI,Toulouse,"Toulouse, 31, France",43.640169,1.45153,31000,31,2026-03-25 11:35:09+01:00,2026,3,13,True,,,,4
0721701,Data Engineer Snowflake F/H h/f,,CDI,Montpellier,"Montpellier, 34, France",43.626378,3.882533,34000,34,2026-03-25 11:35:09+01:00,2026,3,13,True,,,,10
205YJWD,Développeur software systèmes embarqués (H/F),YANMAR CONSTRUCTION EQUIPMENT EUROPE,CDI,St Dizier,"St Dizier, 52, France",48.637511,4.947543,52100,52,2026-03-25 11:26:03.523000+01:00,2026,3,13,False,,,,2
0718906,Consultant senior DATA & IA (H/F),,CDI,Rennes,"Rennes, 35, France",48.092855,-1.675729,35000,35,2026-03-25 10:02:03+01:00,2026,3,13,True,50000.0,60000.0,55000.0,4
0718868,Consultant senior DATA & IA (H/F),,CDI,Nantes,"Nantes, 44, France",47.239923,-1.519033,44000,44,2026-03-25 10:02:03+01:00,2026,3,13,True,50000.0,60000.0,55000.0,4
0716084,Ingenieur analyste h/f ,,CDI,Aix-En-Provence,"Aix-En-Provence, 13, France",43.541201,5.452782,13080,13,2026-03-25 09:15:44+01:00,2026,3,13,False,,,,0
0715090,Gestionnaire/Développeur applicatifs F/H (H/F),,CDI,Châteauneuf-D'Ille-Et-Vilaine,"Châteauneuf-D'Ille-Et-Vilaine, 35, France",48.561498,-1.928591,35430,35,2026-03-25 09:04:00+01:00,2026,3,13,True,,,,1
0708589,Ingénieur Informatique à 100% au sein du Centre de Données Cliniques du Pôle Santé Publique F/H,,CDI,Rennes,"Rennes, 35, France",48.092855,-1.675729,35000,35,2026-03-25 08:03:09+01:00,2026,3,13,False,,,,3
0708049,Roboticien Programmation robot peinture (H/F),,CDI,Guilherand-Granges,"Guilherand-Granges, 07, France",44.93264,4.871483,07500,07,2026-03-25 08:02:36+01:00,2026,3,13,False,,,,0
0700911,DÉVELOPPEUR WINDEV/WEBDEV (F/H) (H/F),,CDI,Eysines,"Eysines, 33, France",44.885893,-0.648645,33320,33,2026-03-25 06:37:19+01:00,2026,3,13,False,,,,1
0697415,CDI - Développeur Logiciel Bancaire  - SBS - Tours - Madrid/Valence (H/F),,CDI,Tours,"Tours, 37, France",47.42215,0.683116,37000,37,2026-03-25 05:31:04+01:00,2026,3,13,False,,,,2
0697353,Administrateur de Bases de Données (F/H),,CDI,Lezennes,"Lezennes, 59, France",50.615163,3.116879,59260,59,2026-03-25 05:30:57+01:00,2026,3,13,True,,,,5
0697319,Alternance – Data Engineer – Services Financiers – Data factory -Nantes (H/F),,CDD,Nantes,"Nantes, 44, France",47.239923,-1.519033,44000,44,2026-03-25 05:30:56+01:00,2026,3,13,True,,,,9
0697330,Alternance - Développeur(se) C# .NET - Services Financiers - Strasbourg (H/F),,CDD,Strasbourg,"Strasbourg, 67, France",48.594935,7.718742,67000,67,2026-03-25 05:30:56+01:00,2026,3,13,True,,,,3
0697328,Alternance - Développeur/se .NET - Services Financiers - Lyon (H/F),,CDD,Lyon 1Er Arrondissement,"Lyon 1Er Arrondissement, 69, France",45.767688,4.835056,69001,69,2026-03-25 05:30:56+01:00,2026,3,13,True,,,,4
0697346,Alternance - Développeur(se) Fullstack - Défense & Sécurité - Tours (H/F),,CDD,Tours,"Tours, 37, France",47.42215,0.683116,37000,37,2026-03-25 05:30:56+01:00,2026,3,13,True,,,,2
0697306,Alternance - Ingénieur(e) développement NodeJS/ReactJS - Aéroline - Aix-en-Provence (H/F),,CDD,Marseille 1Er Arrondissement,"Marseille 1Er Arrondissement, 13, France",43.299265,5.383952,13001,13,2026-03-25 05:30:56+01:00,2026,3,13,True,,,,3
0697284,ALTERNANCE - Chargé(e) de Programmation Artistique H/F,,CDD,Boulogne-Billancourt,"Boulogne-Billancourt, 92, France",48.835948,2.240514,92100,92,2026-03-25 05:30:55+01:00,2026,3,13,False,,,,1
0697239,Alternance - Ingénieur(e) Java / Angular - Energie & Utilities - Nantes (H/F),,CDD,Nantes,"Nantes, 44, France",47.239923,-1.519033,44000,44,2026-03-25 05:30:55+01:00,2026,3,13,True,,,,4
0697187,Alternante/ Alternant - Junior Tech Lead IA – Programme IA DST F/H,,CDI,Bobigny,"Bobigny, 93, France",48.909624,2.46766,93000,93,2026-03-25 05:30:54+01:00,2026,3,13,False,,,,4
0697169,Alternant(e) ingénieur(e) SI Scientifique – Administrateur(rice) Système Linux (F/H),,CDI,Lyon 1Er Arrondissement,"Lyon 1Er Arrondissement, 69, France",45.767688,4.835056,69001,69,2026-03-25 05:30:54+01:00,2026,3,13,True,,,,4
0697212,Alternance - Développeur(se) Fullstack – Services Financiers – Niort (H/F),,CDD,Niort,"Niort, 79, France",46.315157,-0.481524,79000,79,2026-03-25 05:30:54+01:00,2026,3,13,True,,,,4
0697123,ALTERNANCE - Ingénieure / Ingénieur Développeur Business Intelligence F/H,,CDI,Lezennes,"Lezennes, 59, France",50.615163,3.116879,59260,59,2026-03-25 05:30:53+01:00,2026,3,13,False,,,,3
0697102,Ingénieur(e) DevOps - Défense & Sécurité - Bordeaux (H/F),,CDI,Bordeaux,"Bordeaux, 33, France",44.85881,-0.581686,33000,33,2026-03-25 05:30:53+01:00,2026,3,13,True,,,,10
0697192,Alternance - Développeur(se) Fullstack – Services Financiers – Tours (H/F),,CDD,Tours,"Tours, 37, France",47.42215,0.683116,37000,37,2026-03-25 05:30:53+01:00,2026,3,13,True,,,,4
0697119,Développeur/se C# .NET finance de marché - Services Financiers - Ile-de-France (H/F),,CDI,Paris 1Er Arrondissement,"Paris 1Er Arrondissement, 75, France",,,75001,75,2026-03-25 05:30:53+01:00,2026,3,13,True,,,,4
0697066,Alternance - Développeur(se) Fullstack – Services Financiers – Orléans (H/F),,CDD,Orléans,"Orléans, 45, France",47.912131,1.929164,45000,45,2026-03-25 05:30:53+01:00,2026,3,13,True,,,,4
0697049,Responsable Technique JAVA H/F,,CDI,Bordeaux,"Bordeaux, 33, France",44.85881,-0.581686,33000,33,2026-03-25 05:30:53+01:00,2026,3,13,False,,,,4
0697016,Alternance Ingénieur(e) Développement NodeJS - BL Région - Lyon (H/F),,CDD,Lyon 1Er Arrondissement,"Lyon 1Er Arrondissement, 69, France",45.767688,4.835056,69001,69,2026-03-25 05:30:53+01:00,2026,3,13,True,,,,4
0696918,Alternance - Appui ou Appuie Data Analyst & Pilotage Opérationnel F/H,,CDI,Paris 1Er Arrondissement,"Paris 1Er Arrondissement, 75, France",,,75001,75,2026-03-25 05:30:52+01:00,2026,3,13,False,,,,3
0696982,Alternance - Conceptrice ou Concepteur Développeur & IA F/H,,CDI,Nanterre,"Nanterre, 92, France",48.897361,2.195135,92000,92,2026-03-25 05:30:52+01:00,2026,3,13,False,,,,6
0696923,Développeur(euse) Java – Défense & Sécurité - Tours (H/F),,CDI,Tours,"Tours, 37, France",47.42215,0.683116,37000,37,2026-03-25 05:30:52+01:00,2026,3,13,True,,,,3
0696859,Alternance – Développeur/se Full Stack - Services Financiers – Rouen (H/F),,CDD,Rouen,"Rouen, 76, France",49.44463,1.078462,76000,76,2026-03-25 05:30:52+01:00,2026,3,13,True,,,,4
0692311,Technicien Méthode Programmation H/F,,MIS,Honfleur,"Honfleur, 14, France",49.383369,0.244158,14600,14,2026-03-25 04:38:25+01:00,2026,3,13,False,,,,0
0691858,Technicien / Technicienne programmation (H/F),,MIS,Luçon,"Luçon, 85, France",46.455453,-1.170273,85400,85,2026-03-25 04:35:31+01:00,2026,3,13,False,,,,0
0691439,Analyste Programmeur IBM i expérimenté (H/F),Mercato de l'emploi,CDI,Niort,"Niort, 79, France",46.315157,-0.481524,79000,79,2026-03-25 04:31:43+01:00,2026,3,13,False,42000.0,50000.0,46000.0,0
0687947,Référent IA & Advanced Analytics – Performance & Transformation Programmes H/F,,MIS,Blagnac,"Blagnac, 31, France",43.634806,1.397387,31700,31,2026-03-25 00:00:58+01:00,2026,3,13,False,,,,5
0684095,Technicien méthodes programmation (H/F),,CDI,Boën-Sur-Lignon,"Boën-Sur-Lignon, 42, France",45.74522,4.004317,42130,42,2026-03-24 22:00:49+01:00,2026,3,13,False,,,,0
0684088,Technicien méthodes programmation (H/F),,CDI,Saint-Germain-Laval,"Saint-Germain-Laval, 42, France",45.829574,4.011271,42260,42,2026-03-24 22:00:44+01:00,2026,3,13,False,,,,0
0681015,Développeur Full Stack  H/F,,CDI,Dardilly,"Dardilly, 69, France",45.806164,4.753884,69570,69,2026-03-24 21:38:15+01:00,2026,3,13,False,,,,3
0676162,Chef de Projet IT ERP - Données Produit (H/F),,CDI,Toulouse,"Toulouse, 31, France",43.585672,1.466021,31000,31,2026-03-24 21:00:44+01:00,2026,3,13,False,,,,0
0668598,Développeur Java Senior H/F,,CDI,Aix-En-Provence,"Aix-En-Provence, 13, France",43.534848,5.461078,13080,13,2026-03-24 18:42:59+01:00,2026,3,13,False,,,,2
0668393,Développeur Fullstack .NET H/F,,CDI,Orléans,"Orléans, 45, France",47.912131,1.929164,45000,45,2026-03-24 18:41:42+01:00,2026,3,13,False,,,,1
0667946,Développeur C# ASP.Net H/F,,CDI,Aix-En-Provence,"Aix-En-Provence, 13, France",43.534848,5.461078,13080,13,2026-03-24 18:38:29+01:00,2026,3,13,False,,,,2
205XPQT,Senior python (H/F),SEGMENT ELITE,CDI,Paris,"Paris, 75, France",48.872479,2.341194,75009,75,2026-03-24 17:08:04.586000+01:00,2026,3,13,False,,,,7
205XPPK,Developpeur(se) Full Stack (H/F),UN BIJOU A PARIS - LES GEORGETTES,CDD,Le Cheylard,"Le Cheylard, 07, France",44.922703,4.449673,07160,07,2026-03-24 17:07:08.343000+01:00,2026,3,13,True,24384.0,25596.0,24990.0,4
205XNYP,Technicien Programmeur H/F,RB 59,CDD,Roubaix,"Roubaix, 59, France",50.687951,3.158756,59100,59,2026-03-24 16:59:15.856000+01:00,2026,3,13,False,,,,0
0665450,Responsable IT - Équipements Aéronautiques H/F,Silkhom,CDI,Toulouse,"Toulouse, 31, France",43.640169,1.45153,31000,31,2026-03-24 16:39:53+01:00,2026,3,13,True,60000.0,70000.0,65000.0,4
0660994,Ingénieur Développeur .NET (WPF et Web) - Militaire F/H,,CDI,Massy,"Massy, 91, France",48.730893,2.271256,91300,91,2026-03-24 15:40:21+01:00,2026,3,13,False,45000.0,45000.0,45000.0,4
0659428,Concepteur développeur (H/F),,CDI,Hauts-De-Seine,"Hauts-De-Seine, 92, France",,,,92,2026-03-24 15:37:48+01:00,2026,3,13,False,,,,6
205XJKX,Responsable du pôle PI (H/F),DIRECTION D'ENTREPRISES LOCALES EN TRANS,CDI,Courbevoie,"Courbevoie, 92, France",48.901819,2.267542,92400,92,2026-03-24 15:37:19.441000+01:00,2026,3,13,False,,,,2
0659267,Développeur (H/F),,CDI,Marseille,"Marseille, 13, France",43.288894,5.357979,13007,13,2026-03-24 15:36:59+01:00,2026,3,13,False,60000.0,90000.0,75000.0,5
0658659,Technicien support (H/F),,CDI,Fontenay-Le-Comte,"Fontenay-Le-Comte, 85, France",46.464269,-0.782061,85200,85,2026-03-24 15:33:59+01:00,2026,3,13,True,,,,3
205XJBV,Auditeur & Data Analyst (H/F),GROUPE NUMANS,CDI,Bordeaux,"Bordeaux, 33, France",44.820519,-0.571451,33000,33,2026-03-24 15:31:30.962000+01:00,2026,3,13,False,,,,4
0657562,Développeur / Développeuse web (H/F),,CDI,Mulhouse,"Mulhouse, 68, France",47.746624,7.339242,68100,68,2026-03-24 14:40:55+01:00,2026,3,13,False,40000.0,50000.0,45000.0,4
0657329,Analyste programmeur (H/F),,CDI,Tonneins,"Tonneins, 47, France",44.39125,0.308112,47400,47,2026-03-24 14:35:55+01:00,2026,3,13,True,34800.0,38400.0,36600.0,3
205XDNS,Développeur Calypso (H/F),TESSELATE FRANCE,CDI,Neuilly Sur Seine,"Neuilly Sur Seine, 92, France",48.884789,2.269688,92200,92,2026-03-24 13:31:09.330000+01:00,2026,3,13,True,,,,1
205WXXN,Data analyst (H/F),ATC FRANCE,CDI,Bagneux,"Bagneux, 92, France",48.790045,2.312853,92220,92,2026-03-24 12:04:53.017000+01:00,2026,3,13,False,42000.0,54000.0,48000.0,0
205WTJT,Testeur QA / CDI de Projet (H/F),ZONOVA,CDI,Besançon,"Besançon, 25, France",47.237756,6.023879,25000,25,2026-03-24 11:05:03.768000+01:00,2026,3,13,True,,,,2
205WSMH,Data Engineer (H/F),KEEPCOD,CDI,Nantes,"Nantes, 44, France",47.206511,-1.58837,44000,44,2026-03-24 10:49:59.477000+01:00,2026,3,13,False,,,,5
0645853,Ingénieur(e) développement F/H h/f,,CDI,Rennes,"Rennes, 35, France",48.121078,-1.71089,35000,35,2026-03-24 09:34:05+01:00,2026,3,13,False,,,,2
0645408,Ingénieur analyste h/f,,MIS,Marignane,"Marignane, 13, France",43.431314,5.190598,13700,13,2026-03-24 09:15:39+01:00,2026,3,13,False,,,,0
0629670,Ingénieur de données (F/H),,CDI,Vélizy-Villacoublay,"Vélizy-Villacoublay, 78, France",48.797269,2.194266,78140,78,2026-03-24 05:31:12+01:00,2026,3,13,False,,,,1
0629678,CDI - Développeur Logiciel Bancaire  - SBS - Tours - Madrid/Valence (H/F),,CDI,Tours,"Tours, 37, France",47.365453,0.70674,37000,37,2026-03-24 05:31:12+01:00,2026,3,13,False,,,,2
0629653,Développeur C# / SQL confirmé - F/H - Strasbourg - CDI,,CDI,Strasbourg,"Strasbourg, 67, France",48.584283,7.77867,67000,67,2026-03-24 05:31:09+01:00,2026,3,13,False,,,,1
0629620,Alternance - Ingénieur(e) développement NodeJS/ReactJS - Aéroline - Aix-en-Provence (H/F),,CDD,Marseille 1Er Arrondissement,"Marseille 1Er Arrondissement, 13, France",43.299265,5.383952,13001,13,2026-03-24 05:31:07+01:00,2026,3,13,True,,,,3
0629583,ALTERNANCE - Asset Management & Datascience - F/H,,CDD,Paris,"Paris, 75, France",48.865241,2.399419,75020,75,2026-03-24 05:31:05+01:00,2026,3,13,False,,,,4
0629579,Alternance - Ingénieur(e) Java / Angular - Energie & Utilities - Nantes (H/F),,CDD,Nantes,"Nantes, 44, France",47.206511,-1.58837,44000,44,2026-03-24 05:31:05+01:00,2026,3,13,True,,,,4
0629553,Administrateur de Bases de Données (F/H),,CDI,Lezennes,"Lezennes, 59, France",50.615163,3.116879,59260,59,2026-03-24 05:31:04+01:00,2026,3,13,True,,,,5
0629539,Alternance – Data Engineer – Services Financiers – Data factory -Nantes (H/F),,CDD,Nantes,"Nantes, 44, France",47.206511,-1.58837,44000,44,2026-03-24 05:31:03+01:00,2026,3,13,True,,,,9
0629559,Alternance - Développeur(se) Fullstack - Défense & Sécurité - Tours (H/F),,CDD,Tours,"Tours, 37, France",47.365453,0.70674,37000,37,2026-03-24 05:31:03+01:00,2026,3,13,True,,,,2
0629545,Alternance - Développeur/se .NET - Services Financiers - Lyon (H/F),,CDD,Lyon 1Er Arrondissement,"Lyon 1Er Arrondissement, 69, France",45.769506,4.830081,69001,69,2026-03-24 05:31:03+01:00,2026,3,13,True,,,,4
0629500,Alternance - Développeur(se) C# .NET - Services Financiers - Strasbourg (H/F),,CDD,Strasbourg,"Strasbourg, 67, France",48.584283,7.77867,67000,67,2026-03-24 05:31:03+01:00,2026,3,13,True,,,,3
0629443,ALTERNANCE - Chargé(e) de Programmation Artistique H/F,,CDD,Boulogne-Billancourt,"Boulogne-Billancourt, 92, France",48.835948,2.240514,92100,92,2026-03-24 05:31:01+01:00,2026,3,13,False,,,,1
0629333,Alternante/ Alternant - Junior Tech Lead IA – Programme IA DST F/H,,CDI,Bobigny,"Bobigny, 93, France",48.912481,2.416001,93000,93,2026-03-24 05:30:59+01:00,2026,3,13,False,,,,4
0629342,Alternant(e) ingénieur(e) SI Scientifique – Administrateur(rice) Système Linux (F/H),,CDI,Lyon 1Er Arrondissement,"Lyon 1Er Arrondissement, 69, France",45.769506,4.830081,69001,69,2026-03-24 05:30:59+01:00,2026,3,13,True,,,,4
0629311,Expert en Stratégie DATA - Directeur - Entité de spécialité DATA (H/F),,CDI,Nanterre,"Nanterre, 92, France",48.887956,2.225108,92000,92,2026-03-24 05:30:59+01:00,2026,3,13,False,,,,9
0629284,Ingénieur(e) DevOps - Défense & Sécurité - Bordeaux (H/F),,CDI,Bordeaux,"Bordeaux, 33, France",44.873213,-0.546046,33000,33,2026-03-24 05:30:59+01:00,2026,3,13,True,,,,10
0629376,Alternance - Développeur(se) Fullstack – Services Financiers – Tours (H/F),,CDD,Tours,"Tours, 37, France",47.365453,0.70674,37000,37,2026-03-24 05:30:59+01:00,2026,3,13,True,,,,4
0629350,Alternance - Développeur(se) Fullstack – Services Financiers – Niort (H/F),,CDD,Niort,"Niort, 79, France",46.315157,-0.481524,79000,79,2026-03-24 05:30:59+01:00,2026,3,13,True,,,,4
0629322,Développeur/se C# .NET finance de marché - Services Financiers - Ile-de-France (H/F),,CDI,Paris 1Er Arrondissement,"Paris 1Er Arrondissement, 75, France",,,75001,75,2026-03-24 05:30:59+01:00,2026,3,13,True,,,,4
0629316,Alternance - Développeur(se) Fullstack – Services Financiers – Orléans (H/F),,CDD,Orléans,"Orléans, 45, France",47.924275,1.892782,45000,45,2026-03-24 05:30:59+01:00,2026,3,13,True,,,,4
0629277,Responsable Technique JAVA H/F,,CDI,Bordeaux,"Bordeaux, 33, France",44.873213,-0.546046,33000,33,2026-03-24 05:30:59+01:00,2026,3,13,False,,,,4
0629108,Alternance - Appui ou Appuie Data Analyst & Pilotage Opérationnel F/H,,CDI,Paris 1Er Arrondissement,"Paris 1Er Arrondissement, 75, France",,,75001,75,2026-03-24 05:30:58+01:00,2026,3,13,False,,,,3
0629115,Alternance - Conceptrice ou Concepteur Développeur & IA F/H,,CDI,Nanterre,"Nanterre, 92, France",48.887956,2.225108,92000,92,2026-03-24 05:30:58+01:00,2026,3,13,False,,,,6
0629083,Développeur Sénior (Java / React / Serverless AWS) - Aérospatial - Toulouse (H/F),,CDI,Toulouse,"Toulouse, 31, France",43.585672,1.466021,31000,31,2026-03-24 05:30:58+01:00,2026,3,13,True,,,,3
0629065,Développeur(euse) Java – Défense & Sécurité - Tours (H/F),,CDI,Tours,"Tours, 37, France",47.365453,0.70674,37000,37,2026-03-24 05:30:58+01:00,2026,3,13,True,,,,3
0629276,Alternance Ingénieur(e) Développement NodeJS - BL Région - Lyon (H/F),,CDD,Lyon 1Er Arrondissement,"Lyon 1Er Arrondissement, 69, France",45.769506,4.830081,69001,69,2026-03-24 05:30:58+01:00,2026,3,13,True,,,,4
0629014,Alternance – Développeur/se Full Stack - Services Financiers – Rouen (H/F),,CDD,Rouen,"Rouen, 76, France",49.462359,1.135297,76000,76,2026-03-24 05:30:57+01:00,2026,3,13,True,,,,4
0626279,Administrateur des systèmes d’information – Data Engineer (F/H) - DSIN,UNIVERSITE MARIE ET LOUIS PASTEUR,CDD,Besançon,"Besançon, 25, France",47.237756,6.023879,25000,25,2026-03-24 04:31:27+01:00,2026,3,13,False,,,,5
0626201,Ingénieur de Production H/F,REEL IT,CDI,Aix-En-Provence,"Aix-En-Provence, 13, France",43.48513,5.418478,13080,13,2026-03-24 04:31:27+01:00,2026,3,13,False,35000.0,45000.0,40000.0,7
0625869,Développeur JAVA JEE - F/H,SIEGE GROUPE BIGARD,CDI,Quimperlé,"Quimperlé, 29, France",47.874237,-3.552113,29300,29,2026-03-24 04:31:24+01:00,2026,3,13,False,,,,4
205WLZZ,Analyste-Programmeur IA / IA Générative (H/F),,CDI,Paris 08,"Paris 08, 75, France",48.877495,2.317589,75008,75,2026-03-23 22:36:50.235000+01:00,2026,3,13,False,,,,2
0620168,ALTERNANCE - Ingénieur(e) Développeur Business Intelligence F/H (H/F),EDF,CDD,Lille,"Lille, 59, France",50.631718,3.047833,59000,59,2026-03-23 19:15:44+01:00,2026,3,13,False,,,,3
0620163,Data Analyst Risque et Provisionnement (F/H) en alternance (H/F),,CDD,Massy,"Massy, 91, France",48.727791,2.275131,91300,91,2026-03-23 19:15:43+01:00,2026,3,13,False,,,,5
205VXLJ,Un(e) Chargé(e) de programmation culturelle H/F,MAIRIE,CDD,Bagneres De Bigorre,"Bagneres De Bigorre, 65, France",43.068121,0.150547,65200,65,2026-03-23 16:32:08.856000+01:00,2026,3,13,False,,,,0
205VRSN,Animateur(trice) ateliers robotique & programmation Python (H/F),LE PAIN D'EPICE,CDI,Nice,"Nice, 06, France",43.737368,7.303064,06000,06,2026-03-23 15:17:10.097000+01:00,2026,3,13,False,,,,1
205VJHJ,Charge de programmation d activite (H/F),PROMAN,MIS,Clermont-Ferrand,"Clermont-Ferrand, 63, France",45.812995,3.128579,63000,63,2026-03-23 12:31:08.008000+01:00,2026,3,13,False,,,,0
0617829,Ingénieur/ Projeteur installation générale (H/F),,CDI,Paris 1Er Arrondissement,"Paris 1Er Arrondissement, 75, France",,,75001,75,2026-03-23 12:21:42+01:00,2026,3,13,False,,,,0
0617725,Alternance Data analyst - Clichy (H/F),,CDD,Clichy,"Clichy, 92, France",48.902793,2.30484,92110,92,2026-03-23 12:21:41+01:00,2026,3,13,True,,,,13
205VDTY,Developpeur C/SQL/LINUX (H/F),BLUEWINGS,CDI,Paris 10,"Paris 10, 75, France",48.871795,2.357832,75010,75,2026-03-23 11:33:38.532000+01:00,2026,3,13,False,,,,1
205VCFD,Développeur(se) ASP.NET Core Expérimenté(e) (F/H) (H/F),INFORMATIS TECHNOLOGY SYSTM,CDI,Limonest,"Limonest, 69, France",45.835717,4.770972,69760,69,2026-03-23 11:09:05.623000+01:00,2026,3,13,False,,,,4
205VBTS,Développeur Dotnet OPS (H/F),HOLENEK INGENIERIE,CDI,Nantes,"Nantes, 44, France",47.206511,-1.58837,44000,44,2026-03-23 11:01:27.064000+01:00,2026,3,13,False,,,,5
205TYLK,DÉVELOPPEUR C# / .NET - BLAZOR (H/F),OPSIA,CDI,La Valette Du Var,"La Valette Du Var, 83, France",43.128392,5.989371,83160,83,2026-03-23 10:14:06.784000+01:00,2026,3,13,False,,,,3
0615357,"Head of AI & computer vision F/H - Système, réseaux, données (H/F)",LEA Linking Executive Associates,CDI,Grabels,"Grabels, 34, France",43.649626,3.832709,34790,34,2026-03-23 06:41:20+01:00,2026,3,13,False,,,,4
0611564,Ingénieur de données (F/H),,CDI,Vélizy-Villacoublay,"Vélizy-Villacoublay, 78, France",48.797269,2.194266,78140,78,2026-03-23 05:31:13+01:00,2026,3,13,False,,,,1
0611545,CDI - Développeur Logiciel Bancaire  - SBS - Tours - Madrid/Valence (H/F),,CDI,Tours,"Tours, 37, France",47.42215,0.683116,37000,37,2026-03-23 05:31:12+01:00,2026,3,13,False,,,,2
0611535,Développeur C# / SQL confirmé - F/H - Strasbourg - CDI,,CDI,Strasbourg,"Strasbourg, 67, France",48.584715,7.750792,67000,67,2026-03-23 05:31:10+01:00,2026,3,13,False,,,,1
0611497,Alternance - Ingénieur(e) développement NodeJS/ReactJS - Aéroline - Aix-en-Provence (H/F),,CDD,Marseille 1Er Arrondissement,"Marseille 1Er Arrondissement, 13, France",43.299265,5.383952,13001,13,2026-03-23 05:31:07+01:00,2026,3,13,True,,,,3
0611457,ALTERNANCE - Asset Management & Datascience - F/H,,CDD,Paris,"Paris, 75, France",48.865241,2.399419,75020,75,2026-03-23 05:31:06+01:00,2026,3,13,False,,,,4
0611471,Alternance - Ingénieur(e) Java / Angular - Energie & Utilities - Nantes (H/F),,CDD,Nantes,"Nantes, 44, France",47.253826,-1.530426,44000,44,2026-03-23 05:31:06+01:00,2026,3,13,True,,,,4
0611416,Alternance – Data Engineer – Services Financiers – Data factory -Nantes (H/F),,CDD,Nantes,"Nantes, 44, France",47.253826,-1.530426,44000,44,2026-03-23 05:31:03+01:00,2026,3,13,True,,,,9
0611451,Administrateur de Bases de Données (F/H),,CDI,Lezennes,"Lezennes, 59, France",50.615163,3.116879,59260,59,2026-03-23 05:31:03+01:00,2026,3,13,True,,,,5
0611411,Alternance - Développeur/se .NET - Services Financiers - Lyon (H/F),,CDD,Lyon 1Er Arrondissement,"Lyon 1Er Arrondissement, 69, France",45.769506,4.830081,69001,69,2026-03-23 05:31:03+01:00,2026,3,13,True,,,,4
0611402,Alternance - Développeur(se) C# .NET - Services Financiers - Strasbourg (H/F),,CDD,Strasbourg,"Strasbourg, 67, France",48.584715,7.750792,67000,67,2026-03-23 05:31:03+01:00,2026,3,13,True,,,,3
0611383,Alternance - Développeur(se) Fullstack - Défense & Sécurité - Tours (H/F),,CDD,Tours,"Tours, 37, France",47.42215,0.683116,37000,37,2026-03-23 05:31:03+01:00,2026,3,13,True,,,,2
0611338,ALTERNANCE - Chargé(e) de Programmation Artistique H/F,,CDD,Boulogne-Billancourt,"Boulogne-Billancourt, 92, France",48.835948,2.240514,92100,92,2026-03-23 05:31:02+01:00,2026,3,13,False,,,,1
0611256,Alternant(e) ingénieur(e) SI Scientifique – Administrateur(rice) Système Linux (F/H),,CDI,Lyon 1Er Arrondissement,"Lyon 1Er Arrondissement, 69, France",45.769506,4.830081,69001,69,2026-03-23 05:30:59+01:00,2026,3,13,True,,,,4
0611237,Alternante/ Alternant - Junior Tech Lead IA – Programme IA DST F/H,,CDI,Bobigny,"Bobigny, 93, France",48.912481,2.416001,93000,93,2026-03-23 05:30:59+01:00,2026,3,13,False,,,,4
0611247,Alternance - Développeur(se) Fullstack – Services Financiers – Niort (H/F),,CDD,Niort,"Niort, 79, France",46.32557,-0.512375,79000,79,2026-03-23 05:30:59+01:00,2026,3,13,True,,,,4
0611232,Alternance - Développeur(se) Fullstack – Services Financiers – Tours (H/F),,CDD,Tours,"Tours, 37, France",47.42215,0.683116,37000,37,2026-03-23 05:30:58+01:00,2026,3,13,True,,,,4
0611195,Alternance - Développeur(se) Fullstack – Services Financiers – Orléans (H/F),,CDD,Orléans,"Orléans, 45, France",47.884842,1.908837,45000,45,2026-03-23 05:30:58+01:00,2026,3,13,True,,,,4
0611158,Responsable Technique JAVA H/F,,CDI,Bordeaux,"Bordeaux, 33, France",44.847691,-0.581278,33000,33,2026-03-23 05:30:58+01:00,2026,3,13,False,,,,4
0611116,Alternance Ingénieur(e) Développement NodeJS - BL Région - Lyon (H/F),,CDD,Lyon 1Er Arrondissement,"Lyon 1Er Arrondissement, 69, France",45.769506,4.830081,69001,69,2026-03-23 05:30:58+01:00,2026,3,13,True,,,,4
0611022,Alternance - Appui ou Appuie Data Analyst & Pilotage Opérationnel F/H,,CDI,Paris 1Er Arrondissement,"Paris 1Er Arrondissement, 75, France",,,75001,75,2026-03-23 05:30:57+01:00,2026,3,13,False,,,,3
0611048,Alternance - Conceptrice ou Concepteur Développeur & IA F/H,,CDI,Nanterre,"Nanterre, 92, France",48.897361,2.195135,92000,92,2026-03-23 05:30:57+01:00,2026,3,13,False,,,,6
0610986,Développeur Sénior (Java / React / Serverless AWS) - Aérospatial - Toulouse (H/F),,CDI,Toulouse,"Toulouse, 31, France",43.589393,1.378656,31000,31,2026-03-23 05:30:57+01:00,2026,3,13,True,,,,3
0610959,Développeur(euse) Java – Défense & Sécurité - Tours (H/F),,CDI,Tours,"Tours, 37, France",47.42215,0.683116,37000,37,2026-03-23 05:30:57+01:00,2026,3,13,True,,,,3
0610923,Alternance – Développeur/se Full Stack - Services Financiers – Rouen (H/F),,CDD,Rouen,"Rouen, 76, France",49.430099,1.084284,76000,76,2026-03-23 05:30:57+01:00,2026,3,13,True,,,,4
205TWCY,Ingénieur Informatique (production) - CDI - Paris (H/F),,CDI,Paris 12,"Paris 12, 75, France",48.840813,2.388195,75012,75,2026-03-23 00:47:23.060000+01:00,2026,3,12,False,,,,9
0609621,Senior AI Engineer – ScaledUp Paris (M/F/X) (H/F),BAILLY NETWORK,CDI,Paris 1Er Arrondissement,"Paris 1Er Arrondissement, 75, France",,,75001,75,2026-03-22 08:05:53+01:00,2026,3,12,True,70000.0,85000.0,77500.0,6
0609013,Développeur Business Intelligence (M/F/D) (H/F),,CDI,,,,,,No,2026-03-22 08:00:41+01:00,2026,3,12,False,,,,2
0608240,Développeur expérimenté .NET Angular (H/F),Michael Page,CDI,,,48.898449,2.255706,,No,2026-03-22 05:32:31+01:00,2026,3,12,True,60000.0,65000.0,62500.0,6
0608160,Ingénieur de données (F/H),,CDI,Vélizy-Villacoublay,"Vélizy-Villacoublay, 78, France",48.797269,2.194266,78140,78,2026-03-22 05:31:12+01:00,2026,3,12,False,,,,1
0608159,CDI - Développeur Logiciel Bancaire  - SBS - Tours - Madrid/Valence (H/F),,CDI,Tours,"Tours, 37, France",47.42215,0.683116,37000,37,2026-03-22 05:31:12+01:00,2026,3,12,False,,,,2
0608140,Développeur C# / SQL confirmé - F/H - Strasbourg - CDI,,CDI,Strasbourg,"Strasbourg, 67, France",48.545586,7.76587,67000,67,2026-03-22 05:31:09+01:00,2026,3,12,False,,,,1
0608074,ALTERNANCE - Asset Management & Datascience - F/H,,CDD,Paris,"Paris, 75, France",48.865241,2.399419,75020,75,2026-03-22 05:31:04+01:00,2026,3,12,False,,,,4
0608054,Alternance - Ingénieur(e) Java / Angular - Energie & Utilities - Nantes (H/F),,CDD,Nantes,"Nantes, 44, France",47.194026,-1.529364,44000,44,2026-03-22 05:31:04+01:00,2026,3,12,True,,,,4
0608023,Alternance – Data Engineer – Services Financiers – Data factory -Nantes (H/F),,CDD,Nantes,"Nantes, 44, France",47.194026,-1.529364,44000,44,2026-03-22 05:31:02+01:00,2026,3,12,True,,,,9
0607974,Alternance - Développeur(se) C# .NET - Services Financiers - Strasbourg (H/F),,CDD,Strasbourg,"Strasbourg, 67, France",48.545586,7.76587,67000,67,2026-03-22 05:31:02+01:00,2026,3,12,True,,,,3
0608049,Administrateur de Bases de Données (F/H),,CDI,Lezennes,"Lezennes, 59, France",50.615163,3.116879,59260,59,2026-03-22 05:31:02+01:00,2026,3,12,True,,,,5
0608020,Alternance - Développeur(se) Fullstack - Défense & Sécurité - Tours (H/F),,CDD,Tours,"Tours, 37, France",47.42215,0.683116,37000,37,2026-03-22 05:31:02+01:00,2026,3,12,True,,,,2
0608003,Alternance - Développeur/se .NET - Services Financiers - Lyon (H/F),,CDD,Lyon 1Er Arrondissement,"Lyon 1Er Arrondissement, 69, France",45.769506,4.830081,69001,69,2026-03-22 05:31:02+01:00,2026,3,12,True,,,,4
0607989,Alternance - Ingénieur(e) développement NodeJS/ReactJS - Aéroline - Aix-en-Provence (H/F),,CDD,Marseille 1Er Arrondissement,"Marseille 1Er Arrondissement, 13, France",43.299265,5.383952,13001,13,2026-03-22 05:31:02+01:00,2026,3,12,True,,,,3
0607926,ALTERNANCE - Chargé(e) de Programmation Artistique H/F,,CDD,Boulogne-Billancourt,"Boulogne-Billancourt, 92, France",48.835948,2.240514,92100,92,2026-03-22 05:31:00+01:00,2026,3,12,False,,,,1
0607831,Alternante/ Alternant - Junior Tech Lead IA – Programme IA DST F/H,,CDI,Bobigny,"Bobigny, 93, France",48.912481,2.416001,93000,93,2026-03-22 05:30:58+01:00,2026,3,12,False,,,,4
0607839,Alternant(e) ingénieur(e) SI Scientifique – Administrateur(rice) Système Linux (F/H),,CDI,Lyon 1Er Arrondissement,"Lyon 1Er Arrondissement, 69, France",45.769506,4.830081,69001,69,2026-03-22 05:30:58+01:00,2026,3,12,True,,,,4
0607842,Alternance - Développeur(se) Fullstack – Services Financiers – Niort (H/F),,CDD,Niort,"Niort, 79, France",46.326886,-0.480664,79000,79,2026-03-22 05:30:58+01:00,2026,3,12,True,,,,4
0607817,Alternance - Développeur(se) Fullstack – Services Financiers – Tours (H/F),,CDD,Tours,"Tours, 37, France",47.42215,0.683116,37000,37,2026-03-22 05:30:58+01:00,2026,3,12,True,,,,4
0607675,Alternance - Appui ou Appuie Data Analyst & Pilotage Opérationnel F/H,,CDI,Paris 1Er Arrondissement,"Paris 1Er Arrondissement, 75, France",,,75001,75,2026-03-22 05:30:57+01:00,2026,3,12,False,,,,3
0607696,DATA Engineer senior - DCoE France (H/F),,CDI,Lyon 1Er Arrondissement,"Lyon 1Er Arrondissement, 69, France",45.769506,4.830081,69001,69,2026-03-22 05:30:57+01:00,2026,3,12,True,,,,3
0607647,DATA Engineer senior - DCoE France (H/F),,CDI,Nanterre,"Nanterre, 92, France",48.879998,2.207752,92000,92,2026-03-22 05:30:57+01:00,2026,3,12,True,,,,3
0607784,Alternance - Développeur(se) Fullstack – Services Financiers – Orléans (H/F),,CDD,Orléans,"Orléans, 45, France",47.901081,1.905818,45000,45,2026-03-22 05:30:57+01:00,2026,3,12,True,,,,4
0607616,Alternance - Conceptrice ou Concepteur Développeur & IA F/H,,CDI,Nanterre,"Nanterre, 92, France",48.879998,2.207752,92000,92,2026-03-22 05:30:57+01:00,2026,3,12,False,,,,6
0607763,Alternance Ingénieur(e) Développement NodeJS - BL Région - Lyon (H/F),,CDD,Lyon 1Er Arrondissement,"Lyon 1Er Arrondissement, 69, France",45.769506,4.830081,69001,69,2026-03-22 05:30:57+01:00,2026,3,12,True,,,,4
0607753,Responsable Technique JAVA H/F,,CDI,Bordeaux,"Bordeaux, 33, France",44.847691,-0.581278,33000,33,2026-03-22 05:30:57+01:00,2026,3,12,False,,,,4
0607653,Consultant Analytics & IA Transverse DCoE - France (H/F),,CDI,Nanterre,"Nanterre, 92, France",48.879998,2.207752,92000,92,2026-03-22 05:30:56+01:00,2026,3,12,False,,,,10
0607661,Développeur Expert – Java  - Aeroline - Île-de-France (H/F),,CDI,Nanterre,"Nanterre, 92, France",48.879998,2.207752,92000,92,2026-03-22 05:30:56+01:00,2026,3,12,True,,,,2
0607569,Développeur Sénior (Java / React / Serverless AWS) - Aérospatial - Toulouse (H/F),,CDI,Toulouse,"Toulouse, 31, France",43.620518,1.434877,31000,31,2026-03-22 05:30:56+01:00,2026,3,12,True,,,,3
0607547,Développeur(euse) Java – Défense & Sécurité - Tours (H/F),,CDI,Tours,"Tours, 37, France",47.42215,0.683116,37000,37,2026-03-22 05:30:56+01:00,2026,3,12,True,,,,3
0607536,Alternance – Développeur/se Full Stack - Services Financiers – Rouen (H/F),,CDD,Rouen,"Rouen, 76, France",49.462359,1.135297,76000,76,2026-03-22 05:30:56+01:00,2026,3,12,True,,,,4
0607659,Responsable développement - Java - Aeroline - Île-de-France (H/F),,CDI,Nanterre,"Nanterre, 92, France",48.879998,2.207752,92000,92,2026-03-22 05:30:56+01:00,2026,3,12,True,,,,2
0607444,Développeur BI H/F,Fed Group,CDI,Saint-Priest,"Saint-Priest, 69, France",38.646992,-90.224968,69800,69,2026-03-22 05:30:22+01:00,2026,3,12,True,40000.0,45000.0,42500.0,2
0606685,Auditeur IT H/F,,CDI,Toulouse,"Toulouse, 31, France",43.620083,1.470166,31000,31,2026-03-21 23:15:20+01:00,2026,3,12,True,,,,5
0602061,Développeur BI (H/F),,MIS,Hasparren,"Hasparren, 64, France",43.383628,-1.305585,64240,64,2026-03-21 16:29:21+01:00,2026,3,12,False,,,,2
0596479,Développeur Windev H/F,Nextep HR,CDI,Bourgoin-Jallieu,"Bourgoin-Jallieu, 38, France",45.593783,5.276513,38300,38,2026-03-21 15:34:39+01:00,2026,3,12,False,45000.0,50000.0,47500.0,1
0593894,Ingénieur Conception d'IP - digital design engineer (H/F),,CDI,Valbonne,"Valbonne, 06, France",43.622404,7.046216,06560,06,2026-03-21 12:21:35+01:00,2026,3,12,False,,,,2
0593622,Ingénieur génie civil structure (H/F),,CDI,Paris 1Er Arrondissement,"Paris 1Er Arrondissement, 75, France",,,75001,75,2026-03-21 12:21:34+01:00,2026,3,12,False,,,,0
0593624,Ingénieur flow assurance (H/F),,CDI,Lyon 1Er Arrondissement,"Lyon 1Er Arrondissement, 69, France",45.767688,4.835056,69001,69,2026-03-21 12:21:34+01:00,2026,3,12,False,,,,0
0593605,Ingénieur process (H/F),,CDI,Paris 1Er Arrondissement,"Paris 1Er Arrondissement, 75, France",,,75001,75,2026-03-21 12:21:34+01:00,2026,3,12,False,,,,0
0593585,Ingénieur process safety (H/F),,CDI,Marseille 1Er Arrondissement,"Marseille 1Er Arrondissement, 13, France",43.299265,5.383952,13001,13,2026-03-21 12:21:34+01:00,2026,3,12,False,,,,0
0593575,Ingénieur planning (H/F),,CDI,Lyon 1Er Arrondissement,"Lyon 1Er Arrondissement, 69, France",45.767688,4.835056,69001,69,2026-03-21 12:21:34+01:00,2026,3,12,False,,,,0
0572478,Alternant Data Engineer F/H (H/F),Safran,CDD,Gonfreville-L'Orcher,"Gonfreville-L'Orcher, 76, France",49.486084,0.221986,76700,76,2026-03-21 11:42:02+01:00,2026,3,12,False,,,,5
0572241,Senior Fullstack Developer ( Django / React ) F/H (H/F),FAB Group,CDI,Marseille,"Marseille, 13, France",43.298344,5.383221,13008,13,2026-03-21 11:41:01+01:00,2026,3,12,False,80000.0,90000.0,85000.0,5
0572221,Senior Fullstack Developer ( Django / React ) F/H (H/F),FAB Group,CDI,Marseille,"Marseille, 13, France",43.298344,5.383221,13009,13,2026-03-21 11:40:56+01:00,2026,3,12,False,80000.0,90000.0,85000.0,5
0572052,Développeur Windev C# H/F,Fed Group,CDI,Saint-Quentin-Fallavier,"Saint-Quentin-Fallavier, 38, France",45.639645,5.108568,38070,38,2026-03-21 11:40:11+01:00,2026,3,12,True,42000.0,44000.0,43000.0,2
0571780,Développeur(se) Web PHP (Symfony) /MySQL 39h - CDI (H/F),American Vintage,CDI,Signes,"Signes, 83, France",43.277641,5.85714,83870,83,2026-03-21 11:39:00+01:00,2026,3,12,False,,,,3
0571731,Développeur Java Senior H/F,Hays France,CDI,Aix-En-Provence,"Aix-En-Provence, 13, France",43.536072,5.398574,13080,13,2026-03-21 11:38:49+01:00,2026,3,12,True,40000.0,48000.0,44000.0,2
0569759,Data Analyst Contrôle de Gestion (F/H) en alternance (H/F),,CDD,Massy,"Massy, 91, France",48.727791,2.275131,91300,91,2026-03-21 10:46:20+01:00,2026,3,12,False,,,,6
0559692,Data Quality Manager - Finance (f/m/d) (H/F),,CDI,Lille,"Lille, 59, France",50.633332,3.089939,59000,59,2026-03-21 08:03:48+01:00,2026,3,12,False,,,,6
0558078,Informaticien (m/f) (H/F),,CDI,,,,,,No,2026-03-21 08:00:41+01:00,2026,3,12,False,,,,1
0544420,Ingénieur de données (F/H),,CDI,Vélizy-Villacoublay,"Vélizy-Villacoublay, 78, France",48.797269,2.194266,78140,78,2026-03-21 05:31:12+01:00,2026,3,12,False,,,,1
0544409,CDI - Développeur Logiciel Bancaire  - SBS - Tours - Madrid/Valence (H/F),,CDI,Tours,"Tours, 37, France",47.365453,0.70674,37000,37,2026-03-21 05:31:11+01:00,2026,3,12,False,,,,2
0544398,Développeur C# / SQL confirmé - F/H - Strasbourg - CDI,,CDI,Strasbourg,"Strasbourg, 67, France",48.578909,7.71291,67000,67,2026-03-21 05:31:09+01:00,2026,3,12,False,,,,1
0544348,ALTERNANCE - Asset Management & Datascience - F/H,,CDD,Paris,"Paris, 75, France",48.865241,2.399419,75020,75,2026-03-21 05:31:04+01:00,2026,3,12,False,,,,4
0544338,Alternance - Ingénieur(e) développement NodeJS/ReactJS - Aéroline - Aix-en-Provence (H/F),,CDD,Marseille 1Er Arrondissement,"Marseille 1Er Arrondissement, 13, France",43.299265,5.383952,13001,13,2026-03-21 05:31:02+01:00,2026,3,12,True,,,,3
0544322,Alternance - Ingénieur(e) Java / Angular - Energie & Utilities - Nantes (H/F),,CDD,Nantes,"Nantes, 44, France",47.256794,-1.575958,44000,44,2026-03-21 05:31:02+01:00,2026,3,12,True,,,,4
0544285,Administrateur de Bases de Données (F/H),,CDI,Lezennes,"Lezennes, 59, France",50.615163,3.116879,59260,59,2026-03-21 05:31:01+01:00,2026,3,12,True,,,,5
0544229,Alternance – Data Engineer – Services Financiers – Data factory -Nantes (H/F),,CDD,Nantes,"Nantes, 44, France",47.256794,-1.575958,44000,44,2026-03-21 05:31:00+01:00,2026,3,12,True,,,,9
0544243,Alternance - Développeur(se) Fullstack - Défense & Sécurité - Tours (H/F),,CDD,Tours,"Tours, 37, France",47.365453,0.70674,37000,37,2026-03-21 05:31:00+01:00,2026,3,12,True,,,,2
0544240,Alternance - Développeur(se) C# .NET - Services Financiers - Strasbourg (H/F),,CDD,Strasbourg,"Strasbourg, 67, France",48.578909,7.71291,67000,67,2026-03-21 05:31:00+01:00,2026,3,12,True,,,,3
0544222,Alternance - Développeur/se .NET - Services Financiers - Lyon (H/F),,CDD,Lyon 1Er Arrondissement,"Lyon 1Er Arrondissement, 69, France",45.767688,4.835056,69001,69,2026-03-21 05:31:00+01:00,2026,3,12,True,,,,4
0544163,ALTERNANCE - Chargé(e) de Programmation Artistique H/F,,CDD,Boulogne-Billancourt,"Boulogne-Billancourt, 92, France",48.835948,2.240514,92100,92,2026-03-21 05:31:00+01:00,2026,3,12,False,,,,1
0544118,Alternante/ Alternant - Junior Tech Lead IA – Programme IA DST F/H,,CDI,Bobigny,"Bobigny, 93, France",48.909624,2.46766,93000,93,2026-03-21 05:30:58+01:00,2026,3,12,False,,,,4
0544109,Alternant(e) ingénieur(e) SI Scientifique – Administrateur(rice) Système Linux (F/H),,CDI,Lyon 1Er Arrondissement,"Lyon 1Er Arrondissement, 69, France",45.767688,4.835056,69001,69,2026-03-21 05:30:58+01:00,2026,3,12,True,,,,4
0544104,Alternance - Développeur(se) Fullstack – Services Financiers – Niort (H/F),,CDD,Niort,"Niort, 79, France",46.32557,-0.512375,79000,79,2026-03-21 05:30:58+01:00,2026,3,12,True,,,,4
0544057,Alternance - Développeur(se) Fullstack – Services Financiers – Tours (H/F),,CDD,Tours,"Tours, 37, France",47.365453,0.70674,37000,37,2026-03-21 05:30:58+01:00,2026,3,12,True,,,,4
0544047,Alternance - Développeur(se) Fullstack – Services Financiers – Orléans (H/F),,CDD,Orléans,"Orléans, 45, France",47.884842,1.908837,45000,45,2026-03-21 05:30:58+01:00,2026,3,12,True,,,,4
0544018,Alternance Ingénieur(e) Développement NodeJS - BL Région - Lyon (H/F),,CDD,Lyon 1Er Arrondissement,"Lyon 1Er Arrondissement, 69, France",45.767688,4.835056,69001,69,2026-03-21 05:30:58+01:00,2026,3,12,True,,,,4
0544036,Responsable Technique JAVA H/F,,CDI,Bordeaux,"Bordeaux, 33, France",44.830768,-0.571522,33000,33,2026-03-21 05:30:58+01:00,2026,3,12,False,,,,4
0543948,Alternance - Appui ou Appuie Data Analyst & Pilotage Opérationnel F/H,,CDI,Paris 1Er Arrondissement,"Paris 1Er Arrondissement, 75, France",,,75001,75,2026-03-21 05:30:57+01:00,2026,3,12,False,,,,3
0543942,Alternance - Conceptrice ou Concepteur Développeur & IA F/H,,CDI,Nanterre,"Nanterre, 92, France",48.879998,2.207752,92000,92,2026-03-21 05:30:57+01:00,2026,3,12,False,,,,6
0543913,Développeur(euse) Java – Défense & Sécurité - Tours (H/F),,CDI,Tours,"Tours, 37, France",47.365453,0.70674,37000,37,2026-03-21 05:30:57+01:00,2026,3,12,True,,,,3
0543905,Développeur Sénior (Java / React / Serverless AWS) - Aérospatial - Toulouse (H/F),,CDI,Toulouse,"Toulouse, 31, France",43.603987,1.447915,31000,31,2026-03-21 05:30:57+01:00,2026,3,12,True,,,,3
0543866,Alternance – Développeur/se Full Stack - Services Financiers – Rouen (H/F),,CDD,Rouen,"Rouen, 76, France",49.44463,1.078462,76000,76,2026-03-21 05:30:57+01:00,2026,3,12,True,,,,4
0543187,Assistant(e) Data Analyst (H/F),,MIS,Boulogne-Billancourt,"Boulogne-Billancourt, 92, France",48.835948,2.240514,92100,92,2026-03-21 05:00:48+01:00,2026,3,12,False,,,,2
0543069,"Business analyst / Développeur BI - Lyon, France (H/F)",,CDI,Lyon 1Er Arrondissement,"Lyon 1Er Arrondissement, 69, France",45.767688,4.835056,69001,69,2026-03-21 05:00:24+01:00,2026,3,12,False,,,,4
0543065,Assistant Data Analyst Durabilité (H/F),,MIS,Créteil,"Créteil, 94, France",48.791929,2.463674,94000,94,2026-03-21 05:00:21+01:00,2026,3,12,False,,,,7
0540613,Hot-liner en informatique (H/F),,CDI,Niort,"Niort, 79, France",46.326886,-0.480664,79000,79,2026-03-21 04:45:29+01:00,2026,3,12,False,28000.0,30000.0,29000.0,1
0533357,Data Engineer @IoT - H/F,Externatic,CDI,Roche-Sur-Yon,"Roche-Sur-Yon, 85, France",46.656575,-1.423925,85000,85,2026-03-21 00:00:59+01:00,2026,3,12,True,50000.0,65000.0,57500.0,5
0532790,Développeur JAVA (H/F),,CDI,Tours,"Tours, 37, France",47.42215,0.683116,37000,37,2026-03-20 23:07:28+01:00,2026,3,12,True,,,,3
0530176,Cegid - Développeur / Développeuse informatique (H/F),,CDI,Lyon,"Lyon, 69, France",45.786154,4.796312,69009,69,2026-03-20 22:21:32+01:00,2026,3,12,False,,,,2
205TGCX,Développeur PL/SQL (H/F),HOLENEK INGENIERIE,CDI,Nantes,"Nantes, 44, France",47.206511,-1.58837,44000,44,2026-03-20 16:08:06.472000+01:00,2026,3,12,False,,,,1
0516311,DEVELOPPEUR  ERP / IBMi (H/F),,CDI,Molsheim,"Molsheim, 67, France",48.542289,7.492516,67120,67,2026-03-20 15:40:31+01:00,2026,3,12,False,35000.0,50000.0,42500.0,1
0515987,Développeur Angular / Node.js (H/F),,MIS,Hasparren,"Hasparren, 64, France",43.383628,-1.305585,64240,64,2026-03-20 15:40:11+01:00,2026,3,12,False,,,,1
0514461,Ingénieur Essais Qualifications Aéronautique (H/F),,CDI,Toulouse,"Toulouse, 31, France",43.589393,1.378656,31000,31,2026-03-20 12:22:02+01:00,2026,3,12,False,,,,0
0514372,Ingénieur Planificateur (H/F),,CDI,Cherbourg-En-Cotentin,"Cherbourg-En-Cotentin, 50, France",49.6426,-1.625598,50100,50,2026-03-20 12:22:01+01:00,2026,3,12,False,,,,0
0514361,Ingénieur Planificateur (H/F),,CDI,Vélizy-Villacoublay,"Vélizy-Villacoublay, 78, France",48.797269,2.194266,78140,78,2026-03-20 12:22:01+01:00,2026,3,12,False,,,,0
0514114,Ingénieur(e) Algorithmes Navigation - Capteurs - Île-de-France (H/F),,CDI,Houilles,"Houilles, 78, France",48.923176,2.186521,78800,78,2026-03-20 12:21:57+01:00,2026,3,12,False,,,,2
205SMMJ,Responsable Applicatif - Gestion Commerciale (H/F),INFORMATIS TECHNOLOGY SYSTM,CDI,Paris,"Paris, 75, France",,,,75,2026-03-20 10:45:52.424000+01:00,2026,3,12,False,,,,2
205SMDW,Data Engineer Senior (H/F),INFORMATIS TECHNOLOGY SYSTM,CDI,Paris,"Paris, 75, France",,,,75,2026-03-20 10:40:39.053000+01:00,2026,3,12,False,,,,8
0513334,Soutien scolaire en Informatique programmation niveau Term Pro à BONNELLES (H/F),,CDD,Bonnelles,"Bonnelles, 78, France",48.618303,2.028134,78830,78,2026-03-20 10:02:56+01:00,2026,3,12,False,,,,0
0513159,Ingénieur environnement hygiène et sécurité h/f,,MIS,Salaunes,"Salaunes, 33, France",44.936369,-0.831091,33160,33,2026-03-20 09:15:42+01:00,2026,3,12,False,,,,0
0512156,Data Quality Manager - Finance (f/m/d) (H/F),,CDI,Paris,"Paris, 75, France",,,,75,2026-03-20 08:03:43+01:00,2026,3,12,False,,,,6
0507632,"Cloud SecOps Engineer F/H - Système, réseaux, données (H/F)",Safran Aircraft Engines,CDI,Corbeil-Essonnes,"Corbeil-Essonnes, 91, France",48.585345,2.470708,91100,91,2026-03-20 05:50:23+01:00,2026,3,12,False,,,,3
0507426,Développeur fullstack orienté back java spring boot F/H - Informatique de gestion (H/F),Hays France,CDI,Bordeaux,"Bordeaux, 33, France",44.847691,-0.581278,33000,33,2026-03-20 05:49:37+01:00,2026,3,12,True,,,,4
0507345,Développeur Front Angular Java F/H - Informatique de gestion (H/F),Hays France,CDI,Bordeaux,"Bordeaux, 33, France",44.847691,-0.581278,33000,33,2026-03-20 05:49:19+01:00,2026,3,12,True,,,,3
0506798,Développeur full stack TypeScript H/F,CN Amirault,CDI,Montpellier,"Montpellier, 34, France",43.613441,3.868517,34000,34,2026-03-20 05:47:26+01:00,2026,3,12,True,45000.0,50000.0,47500.0,2
0506669,Programmeur CN F/H (H/F),Safran,CDI,Bayonne,"Bayonne, 64, France",43.492226,-1.466077,64100,64,2026-03-20 05:46:58+01:00,2026,3,12,False,,,,0
0506670,Senior Lead developer (H/F/X),E.T.A.I.,CDI,Gentilly,"Gentilly, 94, France",48.813206,2.344207,94250,94,2026-03-20 05:46:58+01:00,2026,3,12,False,,,,5
0506433,ALTERNANCE - Ingénieur R&D maintenance industrielle -F/H H/F,,CDD,Villeneuve-La-Garenne,"Villeneuve-La-Garenne, 92, France",48.935964,2.333283,92390,92,2026-03-20 05:31:12+01:00,2026,3,12,False,,,,4
0506438,Ingénieur de données (F/H),,CDI,Vélizy-Villacoublay,"Vélizy-Villacoublay, 78, France",48.797269,2.194266,78140,78,2026-03-20 05:31:12+01:00,2026,3,12,False,,,,1
0506423,CDI - Développeur Logiciel Bancaire  - SBS - Tours - Madrid/Valence (H/F),,CDI,Tours,"Tours, 37, France",47.42215,0.683116,37000,37,2026-03-20 05:31:12+01:00,2026,3,12,False,,,,2
0506403,Développeur C# / SQL confirmé - F/H - Strasbourg - CDI,,CDI,Strasbourg,"Strasbourg, 67, France",48.545586,7.76587,67000,67,2026-03-20 05:31:10+01:00,2026,3,12,False,,,,1
0506378,ALTERNANCE - Asset Management & Datascience - F/H,,CDD,Paris,"Paris, 75, France",48.865241,2.399419,75020,75,2026-03-20 05:31:05+01:00,2026,3,12,False,,,,4
0506313,Alternance - Ingénieur(e) Java / Angular - Energie & Utilities - Nantes (H/F),,CDD,Nantes,"Nantes, 44, France",47.206511,-1.58837,44000,44,2026-03-20 05:31:02+01:00,2026,3,12,True,,,,4
0506355,Alternance - Ingénieur(e) développement NodeJS/ReactJS - Aéroline - Aix-en-Provence (H/F),,CDD,Marseille 1Er Arrondissement,"Marseille 1Er Arrondissement, 13, France",43.299265,5.383952,13001,13,2026-03-20 05:31:02+01:00,2026,3,12,True,,,,3
0506285,Alternance – Data Engineer – Services Financiers – Data factory -Nantes (H/F),,CDD,Nantes,"Nantes, 44, France",47.206511,-1.58837,44000,44,2026-03-20 05:31:01+01:00,2026,3,12,True,,,,9
0506294,Administrateur de Bases de Données (F/H),,CDI,Lezennes,"Lezennes, 59, France",50.615163,3.116879,59260,59,2026-03-20 05:31:01+01:00,2026,3,12,True,,,,5
0506274,Alternance - Développeur/se .NET - Services Financiers - Lyon (H/F),,CDD,Lyon 1Er Arrondissement,"Lyon 1Er Arrondissement, 69, France",45.767688,4.835056,69001,69,2026-03-20 05:31:01+01:00,2026,3,12,True,,,,4
0506259,Alternance - Développeur(se) C# .NET - Services Financiers - Strasbourg (H/F),,CDD,Strasbourg,"Strasbourg, 67, France",48.545586,7.76587,67000,67,2026-03-20 05:31:01+01:00,2026,3,12,True,,,,3
0506235,Alternance - Développeur(se) Fullstack - Défense & Sécurité - Tours (H/F),,CDD,Tours,"Tours, 37, France",47.42215,0.683116,37000,37,2026-03-20 05:31:01+01:00,2026,3,12,True,,,,2
0506179,ALTERNANCE - Chargé(e) de Programmation Artistique H/F,,CDD,Boulogne-Billancourt,"Boulogne-Billancourt, 92, France",48.835948,2.240514,92100,92,2026-03-20 05:31:00+01:00,2026,3,12,False,,,,1
0506129,Alternant(e) ingénieur(e) SI Scientifique – Administrateur(rice) Système Linux (F/H),,CDI,Lyon 1Er Arrondissement,"Lyon 1Er Arrondissement, 69, France",45.767688,4.835056,69001,69,2026-03-20 05:30:58+01:00,2026,3,12,True,,,,4
0506095,Alternante/ Alternant - Junior Tech Lead IA – Programme IA DST F/H,,CDI,Bobigny,"Bobigny, 93, France",48.910718,2.427536,93000,93,2026-03-20 05:30:58+01:00,2026,3,12,False,,,,4
0506128,Alternance - Développeur(se) Fullstack – Services Financiers – Tours (H/F),,CDD,Tours,"Tours, 37, France",47.42215,0.683116,37000,37,2026-03-20 05:30:58+01:00,2026,3,12,True,,,,4
0506139,Alternance - Développeur(se) Fullstack – Services Financiers – Niort (H/F),,CDD,Niort,"Niort, 79, France",46.326886,-0.480664,79000,79,2026-03-20 05:30:58+01:00,2026,3,12,True,,,,4
0505998,Développeur(euse) Java – Défense & Sécurité - Tours (H/F),,CDI,Tours,"Tours, 37, France",47.42215,0.683116,37000,37,2026-03-20 05:30:57+01:00,2026,3,12,True,,,,3
0505986,Alternance – Développeur/se Full Stack - Services Financiers – Rouen (H/F),,CDD,Rouen,"Rouen, 76, France",49.461641,1.133402,76000,76,2026-03-20 05:30:57+01:00,2026,3,12,True,,,,4
0506069,Alternance - Développeur(se) Fullstack – Services Financiers – Orléans (H/F),,CDD,Orléans,"Orléans, 45, France",47.884842,1.908837,45000,45,2026-03-20 05:30:57+01:00,2026,3,12,True,,,,4
0506070,Responsable Technique JAVA H/F,,CDI,Bordeaux,"Bordeaux, 33, France",44.847691,-0.581278,33000,33,2026-03-20 05:30:57+01:00,2026,3,12,False,,,,4
0504594,Développeur Full-Stack Node/VueJS H/F,ISAGRI,CDI,Paris,"Paris, 75, France",,,,75,2026-03-20 04:31:33+01:00,2026,3,12,True,35000.0,60000.0,47500.0,2
0504342,Data Ingénieur GCP (H/F),ALTECA,CDI,Lille,"Lille, 59, France",50.619348,3.064903,59000,59,2026-03-20 04:31:27+01:00,2026,3,12,True,,,,4
0504169,Développeur ETL SI Conformité (F/H) h/f,,CDI,Balma,"Balma, 31, France",43.605839,1.499991,31130,31,2026-03-20 04:20:46+01:00,2026,3,12,True,,,,1
0503110,Gestionnaire/Développeur applicatifs F/H - Archipel Habitat,Archipel Habitat,CDI,Rennes,"Rennes, 35, France",48.092855,-1.675729,35000,35,2026-03-19 21:31:07+01:00,2026,3,12,True,,,,1
0502945,Alternant Data Analyst (F/H)  (H/F),,CDD,Évry-Courcouronnes,"Évry-Courcouronnes, 91, France",48.629482,2.440082,91000,91,2026-03-19 19:15:00+01:00,2026,3,12,False,,,,5
0502936,Alternant Data Engineer (F/H)  (H/F),,CDD,Évry-Courcouronnes,"Évry-Courcouronnes, 91, France",48.629482,2.440082,91000,91,2026-03-19 19:14:58+01:00,2026,3,12,False,,,,5
0502667,E.Leclerc - Assistant chargé d'études - H/F,,CDD,Ivry-Sur-Seine,"Ivry-Sur-Seine, 94, France",48.811987,2.3875,94200,94,2026-03-19 16:56:35+01:00,2026,3,12,False,,,,4
0502665,E.Leclerc - Assistant AdTech & AdOps Manager - H/F,,CDD,Ivry-Sur-Seine,"Ivry-Sur-Seine, 94, France",48.811987,2.3875,94200,94,2026-03-19 16:56:35+01:00,2026,3,12,False,,,,4
0502649,E.Leclerc - Analytics Engineer (CDI) - H/F,,CDI,Relecq-Kerhuon,"Relecq-Kerhuon, 29, France",48.407436,-4.396354,29480,29,2026-03-19 16:56:35+01:00,2026,3,12,True,,,,5
205RVSM,Développeur Java (H/F),ECONOCOM SERVICES & SOLUTIONS,CDI,Strasbourg,"Strasbourg, 67, France",48.584715,7.750792,67000,67,2026-03-19 16:37:24.267000+01:00,2026,3,12,True,,,,3
0502584,Ingénieur(e) Data et Architecte Infrastructure (H/F),,CDI,Argenteuil,"Argenteuil, 95, France",48.947746,2.248868,95100,95,2026-03-19 15:53:42+01:00,2026,3,12,True,70000.0,70000.0,70000.0,11
0501063,Développeur(euse) JAVA Senior (client lourd) (H/F),,CDI,Aix-En-Provence,"Aix-En-Provence, 13, France",43.534848,5.461078,13080,13,2026-03-19 15:42:47+01:00,2026,3,12,False,45000.0,60000.0,52500.0,4
205RNVK,Chargé(e) de programmation et de recrutement (H/F),ACS CONSULTANTS,CDI,Marseille 01,"Marseille 01, 13, France",43.299265,5.383952,13001,13,2026-03-19 14:03:17.683000+01:00,2026,3,12,True,,,,0
0499969,Développeur Java (H/F),,CDI,Marseille,"Marseille, 13, France",43.249653,5.38847,13008,13,2026-03-19 12:22:10+01:00,2026,3,12,False,,,,7
0499914,Platform Lead Snowflake (H/F),,CDI,Paris 1Er Arrondissement,"Paris 1Er Arrondissement, 75, France",,,75001,75,2026-03-19 12:22:09+01:00,2026,3,12,False,,,,5
0499006,Ingénieur intégration Réseau et Sécurité (H/F),,CDI,Paris,"Paris, 75, France",,,75002,75,2026-03-19 12:21:55+01:00,2026,3,12,True,,,,2
0498904,Développeur Editique (H/F),,LIB,Versailles,"Versailles, 78, France",48.801228,2.130076,78000,78,2026-03-19 12:21:54+01:00,2026,3,12,False,,,,3
0498820,Data Engineer - Expert Snowflake & DBT (H/F/NB),,CDI,Puteaux,"Puteaux, 92, France",48.884019,2.237979,92800,92,2026-03-19 12:21:54+01:00,2026,3,12,False,,,,11
0498814,Data Science & IA Engineer (H/F/NB),,CDI,Puteaux,"Puteaux, 92, France",48.884019,2.237979,92800,92,2026-03-19 12:21:54+01:00,2026,3,12,False,,,,9
0498910,Ingénieur Data (AO - 024) (H/F),,CDI,Mérignac,"Mérignac, 33, France",44.817501,-0.700356,33700,33,2026-03-19 12:21:54+01:00,2026,3,12,False,,,,1
0498847,Ingénieur(e) Validation Firmware (H/F),,CDI,Vernon,"Vernon, 27, France",49.092996,1.485452,27200,27,2026-03-19 12:21:54+01:00,2026,3,12,False,,,,0
0498729,Alternance Analyste Stratégie PPF - Massy (H/F),,CDD,Massy,"Massy, 91, France",48.730893,2.271256,91300,91,2026-03-19 12:21:50+01:00,2026,3,12,False,,,,3
0498717,Lead Integration Projet (H/F),,CDI,Bréau,"Bréau, 77, France",48.561426,2.877868,77720,77,2026-03-19 12:21:49+01:00,2026,3,12,False,,,,0
0498631,Ingénieur Planificateur (H/F),,CDI,Garde-Adhémar,"Garde-Adhémar, 26, France",44.393048,4.75295,26700,26,2026-03-19 12:21:47+01:00,2026,3,12,False,,,,0
0498621,Ingénieur Intégration Validation & Vérification (H/F),,CDI,Forges-Les-Bains,"Forges-Les-Bains, 91, France",48.628071,2.099863,91470,91,2026-03-19 12:21:47+01:00,2026,3,12,False,,,,2
205RJHF,Développeur Senior Data / SAP - Migration On-Premise (H/F),INFORMATIS TECHNOLOGY SYSTM,CDI,Paris,"Paris, 75, France",48.846127,2.344508,75005,75,2026-03-19 12:16:30.794000+01:00,2026,3,12,False,,,,1
0497391,Développeur / Développeuse décisionnel - Business Intelligence (H/F),,CDI,Champigny-Sur-Marne,"Champigny-Sur-Marne, 94, France",48.806129,2.551066,94500,94,2026-03-19 11:40:08+01:00,2026,3,12,True,,,,2
0496874,Développeur SQL (H/F),,CDI,Metz,"Metz, 57, France",49.107174,6.19222,57000,57,2026-03-19 11:33:08+01:00,2026,3,12,False,,,,1
205RFJZ,Senior Data engineer (H/F),DEVOTEAM GROUP,CDI,Lille,"Lille, 59, France",50.633332,3.089939,59000,59,2026-03-19 11:25:50.856000+01:00,2026,3,12,False,,,,12
0494826,Développeur d'applications (H/F),,CDI,Strasbourg,"Strasbourg, 67, France",48.592028,7.696481,67000,67,2026-03-19 10:46:44+01:00,2026,3,12,True,28000.0,28000.0,28000.0,1
0494392,Développeur BI (H/F),,MIS,Hasparren,"Hasparren, 64, France",43.383628,-1.305585,64240,64,2026-03-19 10:44:51+01:00,2026,3,12,False,,,,3
0490165,Cours particuliers en Informatique programmation niveau BTS 1 à ANGERS (H/F),,CDD,Angers,"Angers, 49, France",47.444916,-0.563521,49000,49,2026-03-19 10:03:51+01:00,2026,3,12,False,,,,0
0488136,Fraiseur CN /Programmation (H/F),,CDI,Saint-Just-De-Claix,"Saint-Just-De-Claix, 38, France",45.074252,5.283192,38680,38,2026-03-19 10:02:07+01:00,2026,3,12,False,33000.0,40000.0,36500.0,0
0484970,Chef de projet SI IA Construction & Copilot F/H,,CDI,Hauts-De-Seine,"Hauts-De-Seine, 92, France",,,,92,2026-03-19 09:33:19+01:00,2026,3,12,False,,,,2
205QYQC,Développeur Web Full Stack - Clinical IT (H/F),THERADIS PHARMA,CDI,Cagnes Sur Mer,"Cagnes Sur Mer, 06, France",43.65727,7.165423,06800,06,2026-03-19 09:32:43.479000+01:00,2026,3,12,False,36000.0,36012.0,36006.0,4
0482097,"Alternant Dev. Appli. WEB, maintenance scripts internes H/F",CEA - COMMISSARIAT ENERGIE ATOMIQUE,CDD,Bagnols-Sur-Cèze,"Bagnols-Sur-Cèze, 30, France",44.162251,4.624774,30200,30,2026-03-19 08:47:41+01:00,2026,3,12,False,14400.0,16200.0,15300.0,1
0481782,Data Engineer Cloud (H/F),PROSOL,CDI,Chaponnay,"Chaponnay, 69, France",45.628227,4.95028,69970,69,2026-03-19 08:46:51+01:00,2026,3,12,True,,,,7
0481569,Data engineer (F/H) - Data Solutions Analytics h/f,,CDI,Balma,"Balma, 31, France",43.605839,1.499991,31130,31,2026-03-19 08:45:58+01:00,2026,3,12,True,,,,4
0480026,Data Scientist  (H/F),,CDI,,,,,,No,2026-03-19 08:00:46+01:00,2026,3,12,True,,,,4
0479974,Data Engineer (m/f) (réf. E) (réf. F) (réf. M) (H/F),,CDI,,,,,,No,2026-03-19 08:00:45+01:00,2026,3,12,False,,,,5
0479926,Analyste de données - Analyste BI (m/f) (réf. E) (réf. F) (réf. M) (H/F),,CDI,,,,,,No,2026-03-19 08:00:44+01:00,2026,3,12,False,,,,3
0479902,BUSINESS INTELLIGENCE (BI) ANALYST (H/F),,CDI,,,,,,No,2026-03-19 08:00:43+01:00,2026,3,12,False,,,,5
0478012,Data Analyst Recouvrement F/H h/f,,CDI,Croix,"Croix, 59, France",50.6804,3.155994,59170,59,2026-03-19 07:37:56+01:00,2026,3,12,False,,,,3
0466146,CDI - Développeur Logiciel Bancaire  - SBS - Tours - Madrid/Valence (H/F),,CDI,Tours,"Tours, 37, France",47.404397,0.710983,37000,37,2026-03-19 05:31:06+01:00,2026,3,12,False,,,,2
0466119,Développeur C# / SQL confirmé - F/H - Strasbourg - CDI,,CDI,Strasbourg,"Strasbourg, 67, France",48.592028,7.696481,67000,67,2026-03-19 05:31:05+01:00,2026,3,12,False,,,,1
0466084,Alternance – Data Engineer – Services Financiers – Data factory -Nantes (H/F),,CDD,Nantes,"Nantes, 44, France",47.204244,-1.604846,44000,44,2026-03-19 05:31:02+01:00,2026,3,12,True,,,,9
0466122,Administrateur de Bases de Données (F/H),,CDI,Lezennes,"Lezennes, 59, France",50.615163,3.116879,59260,59,2026-03-19 05:31:02+01:00,2026,3,12,True,,,,5
0466090,Alternance - Développeur(se) Fullstack - Défense & Sécurité - Tours (H/F),,CDD,Tours,"Tours, 37, France",47.404397,0.710983,37000,37,2026-03-19 05:31:02+01:00,2026,3,12,True,,,,2
0466087,Alternance - Développeur/se .NET - Services Financiers - Lyon (H/F),,CDD,Lyon 1Er Arrondissement,"Lyon 1Er Arrondissement, 69, France",45.767688,4.835056,69001,69,2026-03-19 05:31:02+01:00,2026,3,12,True,,,,4
0466078,Alternance - Développeur(se) C# .NET - Services Financiers - Strasbourg (H/F),,CDD,Strasbourg,"Strasbourg, 67, France",48.592028,7.696481,67000,67,2026-03-19 05:31:01+01:00,2026,3,12,True,,,,3
0466075,Alternance - Ingénieur(e) développement NodeJS/ReactJS - Aéroline - Aix-en-Provence (H/F),,CDD,Marseille 1Er Arrondissement,"Marseille 1Er Arrondissement, 13, France",43.299265,5.383952,13001,13,2026-03-19 05:31:01+01:00,2026,3,12,True,,,,3
0466021,Alternance - Ingénieur(e) Java / Angular - Energie & Utilities - Nantes (H/F),,CDD,Nantes,"Nantes, 44, France",47.204244,-1.604846,44000,44,2026-03-19 05:31:00+01:00,2026,3,12,True,,,,4
0466019,Alternance - Développeur(se) Fullstack – Services Financiers – Orléans (H/F),,CDD,Orléans,"Orléans, 45, France",47.884842,1.908837,45000,45,2026-03-19 05:30:58+01:00,2026,3,12,True,,,,4
0465987,Alternance - Développeur(se) Fullstack – Services Financiers – Niort (H/F),,CDD,Niort,"Niort, 79, France",46.326886,-0.480664,79000,79,2026-03-19 05:30:58+01:00,2026,3,12,True,,,,4
0465904,Développeur(euse) Java – Défense & Sécurité - Tours (H/F),,CDI,Tours,"Tours, 37, France",47.404397,0.710983,37000,37,2026-03-19 05:30:57+01:00,2026,3,12,True,,,,3
0465897,Alternance – Développeur/se Full Stack - Services Financiers – Rouen (H/F),,CDD,Rouen,"Rouen, 76, France",49.44463,1.078462,76000,76,2026-03-19 05:30:57+01:00,2026,3,12,True,,,,4
0465983,Alternance - Développeur(se) Fullstack – Services Financiers – Tours (H/F),,CDD,Tours,"Tours, 37, France",47.404397,0.710983,37000,37,2026-03-19 05:30:57+01:00,2026,3,12,True,,,,4
0465881,ALTERNANCE - Chargé(e) de Programmation Artistique H/F,,CDD,Boulogne-Billancourt,"Boulogne-Billancourt, 92, France",48.835948,2.240514,92100,92,2026-03-19 05:30:57+01:00,2026,3,12,False,,,,1
0466004,Responsable Technique JAVA H/F,,CDI,Bordeaux,"Bordeaux, 33, France",44.852155,-0.615633,33000,33,2026-03-19 05:30:57+01:00,2026,3,12,False,,,,4
0464595,TECHNICIEN PROGRAMMEUR EN USINAGE (H/F),,CDI,Autechaux,"Autechaux, 25, France",47.378642,6.384298,25110,25,2026-03-19 05:02:31+01:00,2026,3,12,False,,,,0
0463826,Alternance – Développeur/se Full Stack - Services Financiers – Rouen (H/F),,MIS,Rouen,"Rouen, 76, France",49.430099,1.084284,76000,76,2026-03-19 05:00:26+01:00,2026,3,12,True,,,,4
0460530,Data Engineer H/F,JEMS,CDI,Nantes,"Nantes, 44, France",47.204244,-1.604846,44000,44,2026-03-19 04:31:27+01:00,2026,3,12,False,45000.0,55000.0,50000.0,6
0460511,Tech Lead Data Engineer H/F,JEMS,CDI,Levallois-Perret,"Levallois-Perret, 92, France",48.892818,2.287751,92300,92,2026-03-19 04:31:27+01:00,2026,3,12,False,50000.0,75000.0,62500.0,7
0460293,Tech Lead Data et IA Générative H/F,JEMS,CDI,Nantes,"Nantes, 44, France",47.204244,-1.604846,44000,44,2026-03-19 04:31:25+01:00,2026,3,12,False,50000.0,65000.0,57500.0,8
0456593,Développeur JAVA (H/F),,CDI,Orléans,"Orléans, 45, France",47.901081,1.905818,45000,45,2026-03-18 22:35:18+01:00,2026,3,12,True,,,,6
0456290,gestionnaire programmation projet educatif lyonnais H/F - EC21692,,CDI,Lyon 1Er Arrondissement,"Lyon 1Er Arrondissement, 69, France",45.769506,4.830081,69001,69,2026-03-18 22:04:11+01:00,2026,3,12,False,,,,0
0455738,Développeur / Développeuse web (H/F),,CDI,Strasbourg,"Strasbourg, 67, France",48.578909,7.71291,67000,67,2026-03-18 21:44:24+01:00,2026,3,12,False,35000.0,40000.0,37500.0,2
0451471,Concepteur développeur F/H - Numih France - Toulouse,Numih France - Toulouse,CDI,Toulouse,"Toulouse, 31, France",43.640169,1.45153,31000,31,2026-03-18 21:29:02+01:00,2026,3,12,True,,,,4
205QTFG,LEADER TECHNIQUE DEVELOPPEUR JAVA (H/F),ITEKWAY,CDI,Chateaufort,"Chateaufort, 78, France",48.737288,2.092102,78117,78,2026-03-18 19:45:11.980000+01:00,2026,3,12,False,,,,2
0445656,Développeur JAVA (H/F),,CDI,Paris,"Paris, 75, France",,,,75,2026-03-18 19:40:44+01:00,2026,3,12,True,,,,6
